BusStopCode,RoadName,Description,FullName,Latitude,Longitude
10009,Bt Merah Ctrl,Bt Merah Int,10009 - Bt Merah Int,1.2821,103.81722
10011,New Bridge Rd,Bef Neil Rd,10011 - Bef Neil Rd,1.27774,103.8375
10017,Eu Tong Sen St,Aft Hosp Dr,10017 - Aft Hosp Dr,1.27832,103.83763
10018,Eu Tong Sen St,Outram Pk Stn Exit 6/SGH,10018 - Outram Pk Stn Exit 6/SGH,1.27901,103.8386
10021,Neil Rd,Blk 3,10021 - Blk 3,1.27745,103.83839
10041,Kg Bahru Rd,Bef Kampong Bahru Ter,10041 - Bef Kampong Bahru Ter,1.27606,103.83519
10049,Kg Bahru Rd,Opp Kampong Bahru Ter,10049 - Opp Kampong Bahru Ter,1.27623,103.83484
10051,Jln Bt Merah,Blk 149,10051 - Blk 149,1.27741,103.83214
10059,Jln Bt Merah,Opp Blk 149,10059 - Opp Blk 149,1.2774,103.83275
10061,Jln Bt Merah,Blk 140,10061 - Blk 140,1.2786,103.82949
10069,Jln Bt Merah,Opp Blk 140,10069 - Opp Blk 140,1.27855,103.83008
10071,Jln Bt Merah,Blk 111,10071 - Blk 111,1.28045,103.82639
10079,Jln Bt Merah,Blk 201,10079 - Blk 201,1.2804,103.82709
10081,Jln Bt Merah,Opp Blk 120,10081 - Opp Blk 120,1.28228,103.82242
10089,Jln Bt Merah,Blk 119,10089 - Blk 119,1.28292,103.82166
10091,Jln Bt Merah,Bt Merah Town Ctr,10091 - Bt Merah Town Ctr,1.28394,103.81784
10099,Jln Bt Merah,Opp Bt Merah Town Ctr,10099 - Opp Bt Merah Town Ctr,1.28421,103.81766
10101,Jln Bt Merah,Opp Bt Merah Sec Sch,10101 - Opp Bt Merah Sec Sch,1.28506,103.81378
10109,Jln Bt Merah,Bt Merah Sec Sch,10109 - Bt Merah Sec Sch,1.28535,103.81371
10111,Jln Bt Merah,Opp Blk 28,10111 - Opp Blk 28,1.28593,103.80935
10119,Jln Bt Merah,Opp Pacific Tech Ctr,10119 - Opp Pacific Tech Ctr,1.28598,103.81123
10121,Kim Tian Rd,Blk 126 CP,10121 - Blk 126 CP,1.2826,103.82891
10129,Kim Tian Rd,Blk 121,10129 - Blk 121,1.28232,103.82857
10131,Jln Bt Merah,Opp Blk 2,10131 - Opp Blk 2,1.28619,103.80687
10139,Jln Bt Merah,Blk 1,10139 - Blk 1,1.28635,103.8081
10141,Tiong Bahru Rd,Blk 18,10141 - Blk 18,1.28584,103.83238
10149,Tiong Bahru Rd,Blk 1,10149 - Blk 1,1.28607,103.83283
10151,Tiong Bahru Rd,Ctrl Green Condo,10151 - Ctrl Green Condo,1.28572,103.82853
10161,Tiong Bahru Rd,Opp Tiong Bahru Stn/Plaza,10161 - Opp Tiong Bahru Stn/Plaza,1.28593,103.82669
10169,Tiong Bahru Rd,Tiong Bahru Stn/Plaza,10169 - Tiong Bahru Stn/Plaza,1.286,103.82748
10171,Tiong Bahru Rd,Opp Tiong Bahru Pk,10171 - Opp Tiong Bahru Pk,1.28737,103.82346
10179,Tiong Bahru Rd,Tiong Bahru Pk,10179 - Tiong Bahru Pk,1.28722,103.82396
10181,Tiong Bahru Rd,Bef Ar-Rabitah Mque,10181 - Bef Ar-Rabitah Mque,1.2885,103.8211
10189,Tiong Bahru Rd,Blk 104A CP,10189 - Blk 104A CP,1.28859,103.82183
10191,Tiong Bahru Rd,Blk 78,10191 - Blk 78,1.2886,103.81903
10199,Tiong Bahru Rd,Delta Swim Cplx,10199 - Delta Swim Cplx,1.28876,103.81937
10201,Tiong Bahru Rd,Opp Redhill Stn,10201 - Opp Redhill Stn,1.28928,103.81663
10209,Tiong Bahru Rd,Redhill Stn,10209 - Redhill Stn,1.28955,103.81673
10211,Leng Kee Rd,BMW Eurokars Auto,10211 - BMW Eurokars Auto,1.29075,103.81144
10219,Leng Kee Rd,Skoda S'pore/Volkswagen Grp,10219 - Skoda S'pore/Volkswagen Grp,1.29084,103.81181
10221,Ganges Ave,Ganges Ctr,10221 - Ganges Ctr,1.29033,103.83112
10229,Ganges Ave,Opp Harvest Mansions,10229 - Opp Harvest Mansions,1.29052,103.83178
10231,Ganges Ave,Blk 51 CP,10231 - Blk 51 CP,1.29042,103.82788
10239,Ganges Ave,Blk 79,10239 - Blk 79,1.29061,103.82865
10241,Alexandra Rd,Gan Eng Seng Sec Sch,10241 - Gan Eng Seng Sec Sch,1.29062,103.82362
10249,Alexandra Rd,Opp Gan Eng Seng Sec Sch,10249 - Opp Gan Eng Seng Sec Sch,1.29088,103.82408
10261,Alexandra Rd,Delta Sports Hall,10261 - Delta Sports Hall,1.2909,103.82047
10269,Alexandra Rd,Opp Delta Sports Hall,10269 - Opp Delta Sports Hall,1.29125,103.82058
10271,Alexandra Rd,Opp Tanglin View,10271 - Opp Tanglin View,1.29116,103.81758
10279,Alexandra Rd,Tanglin View,10279 - Tanglin View,1.29151,103.81758
10281,Alexandra Rd,SIS Bldg,10281 - SIS Bldg,1.29154,103.81445
10287,Alexandra Rd,Opposite Cycle & Carriage,10287 - Opposite Cycle & Carriage,1.29191,103.81341
10289,Alexandra Rd,Opp SIS Bldg,10289 - Opp SIS Bldg,1.29187,103.81441
10291,Alexandra Rd,Opp Dawson Pl,10291 - Opp Dawson Pl,1.29216,103.81066
10299,Alexandra Rd,Aft Dawson Pl,10299 - Aft Dawson Pl,1.29233,103.81146
10321,Tanglin Rd,Opp Grace Ably of God Ch,10321 - Opp Grace Ably of God Ch,1.29428,103.81588
10329,Tanglin Rd,Crescent Girls' Sch,10329 - Crescent Girls' Sch,1.29365,103.81597
10331,Henderson Rd,Bef Bt Merah Ctrl,10331 - Bef Bt Merah Ctrl,1.28136,103.81834
10339,Henderson Rd,Aft Bt Merah Ctrl,10339 - Aft Bt Merah Ctrl,1.28116,103.81857
10341,Henderson Rd,Opp Blk 116,10341 - Opp Blk 116,1.28485,103.82059
10349,Henderson Rd,Blk 116,10349 - Blk 116,1.28498,103.82101
10351,Henderson Rd,Blk 95B,10351 - Blk 95B,1.28676,103.82205
10359,Henderson Rd,Opp Blk 95C,10359 - Opp Blk 95C,1.28724,103.82259
10361,Lower Delta Rd,Cendex Ctr,10361 - Cendex Ctr,1.28038,103.82353
10369,Lower Delta Rd,Opp Cendex Ctr,10369 - Opp Cendex Ctr,1.28037,103.82387
10371,Lower Delta Rd,Blk 129,10371 - Blk 129,1.28365,103.8245
10379,Lower Delta Rd,Blk 25B,10379 - Blk 25B,1.28374,103.8249
10381,Lower Delta Rd,Opp Blk 48,10381 - Opp Blk 48,1.28907,103.82559
10389,Lower Delta Rd,Blk 48,10389 - Blk 48,1.28876,103.82573
10391,Kg Bahru Rd,Opp Melati Blk 2,10391 - Opp Melati Blk 2,1.27627,103.83126
10399,Kg Bahru Rd,Melati Blk 2,10399 - Melati Blk 2,1.27588,103.83019
10401,Hoy Fatt Rd,Shriro Hse,10401 - Shriro Hse,1.28817,103.81168
10409,Hoy Fatt Rd,Blk 50,10409 - Blk 50,1.28788,103.81099
10411,Hoy Fatt Rd,Opp Blk 53,10411 - Opp Blk 53,1.28913,103.81281
10419,Hoy Fatt Rd,Blk 52,10419 - Blk 52,1.28842,103.81258
10421,Lengkok Bahru,Blk 63B,10421 - Blk 63B,1.28896,103.81498
10429,Lengkok Bahru,Blk 54,10429 - Blk 54,1.28928,103.81405
10431,Lengkok Bahru,Enabling Village,10431 - Enabling Village,1.2872,103.81398
10439,Lengkok Bahru,Opp Enabling Village,10439 - Opp Enabling Village,1.28748,103.81419
10441,Lengkok Bahru,Opp Blk 44,10441 - Opp Blk 44,1.28657,103.81161
10449,Lengkok Bahru,Blk 44,10449 - Blk 44,1.28667,103.81195
10451,Redhill Rd,Opp Blk 71,10451 - Opp Blk 71,1.28762,103.81726
10459,Redhill Rd,Blk 72,10459 - Blk 72,1.28755,103.8164
10461,Kay Siang Rd,Opp Blk 95,10461 - Opp Blk 95,1.29681,103.81169
10469,Kay Siang Rd,Bef Margaret Dr,10469 - Bef Margaret Dr,1.29668,103.81217
10471,Kay Siang Rd,Bef Tanglin Rd,10471 - Bef Tanglin Rd,1.2968,103.81468
10479,Kay Siang Rd,Aft Tanglin Rd,10479 - Aft Tanglin Rd,1.29668,103.81547
10481,Redhill Cl,Opp Blk 73,10481 - Opp Blk 73,1.28784,103.81797
10489,Redhill Cl,Blk 73,10489 - Blk 73,1.28812,103.81778
10499,Spooner Rd,Kampong Bahru Ter,10499 - Kampong Bahru Ter,1.27585,103.83401
10501,Jln Bt Merah,Blk 104,10501 - Blk 104,1.28106,103.82528
10519,Delta Rd,Blk 4,10519 - Blk 4,1.29173,103.82612
10599,Jln Rumah Tinggi,Opp Blk 36,10599 - Opp Blk 36,1.28883,103.80925
10651,Bt Merah Ctrl,Blk 161,10651 - Blk 161,1.2833,103.81548
10659,Bt Merah Ctrl,Blk 1003,10659 - Blk 1003,1.28362,103.81473
11001,Ghim Moh Rd,Opposite Ghim Moh Terminal,11001 - Opposite Ghim Moh Terminal,1.31107,103.78916
11009,Ghim Moh Rd,Ghim Moh Ter,11009 - Ghim Moh Ter,1.31107,103.78932
11019,Jln Bt Merah,Bef Blk 2,11019 - Bef Blk 2,1.2868,103.80566
11021,Queensway,Aft Queenstown NPC HQ,11021 - Aft Queenstown NPC HQ,1.28942,103.80229
11029,Queensway,Blk 166/Aft Mei Chin Rd,11029 - Blk 166/Aft Mei Chin Rd,1.29013,103.80202
11031,Queensway,Opp Queen's Cl,11031 - Opp Queen's Cl,1.2912,103.80046
11039,Queensway,Blk 19,11039 - Blk 19,1.29246,103.79999
11041,Queensway,Aft C'wealth Dr,11041 - Aft C'wealth Dr,1.29624,103.79952
11049,Queensway,Opp Blessed Sacrament Ch,11049 - Opp Blessed Sacrament Ch,1.29546,103.79953
11051,Queensway,Opp Queenstown Polyclinic,11051 - Opp Queenstown Polyclinic,1.29872,103.8003
11059,Queensway,Queenstown Polyclinic,11059 - Queenstown Polyclinic,1.29883,103.80097
11061,Queensway,Opp Queensway Sec Sch,11061 - Opp Queensway Sec Sch,1.30266,103.80119
11069,Queensway,Queensway Sec Sch,11069 - Queensway Sec Sch,1.30237,103.80162
11071,Queensway,Blk 97,11071 - Blk 97,1.30621,103.80171
11079,Queensway,Opp Blk 95,11079 - Opp Blk 95,1.30544,103.80185
11081,Queensway,Viz Holland,11081 - Viz Holland,1.30852,103.80258
11089,Queensway,Opp Holland Hill Lodge,11089 - Opp Holland Hill Lodge,1.30946,103.80334
11091,Farrer Rd,Leedon Green,11091 - Leedon Green,1.31219,103.80367
11099,Farrer Rd,Opp Leedon Green,11099 - Opp Leedon Green,1.31305,103.80438
11101,Farrer Rd,Empress Rd Mkt/FC,11101 - Empress Rd Mkt/FC,1.31615,103.80596
11109,Farrer Rd,Spanish Village,11109 - Spanish Village,1.31552,103.80574
11111,Farrer Rd,Farrer Rd Stn Exit B,11111 - Farrer Rd Stn Exit B,1.3178,103.80772
11119,Farrer Rd,Farrer Rd Stn Exit A,11119 - Farrer Rd Stn Exit A,1.31748,103.80786
11131,C'wealth Ave,Queens Condo,11131 - Queens Condo,1.29288,103.80707
11139,C'wealth Ave,Blk 53A CP,11139 - Blk 53A CP,1.2932,103.80745
11141,C'wealth Ave,Queenstown Stn Exit A/D,11141 - Queenstown Stn Exit A/D,1.29464,103.80583
11149,C'wealth Ave,Queenstown Stn Exit B/C,11149 - Queenstown Stn Exit B/C,1.29506,103.80596
11151,C'wealth Ave,Blk 42,11151 - Blk 42,1.29864,103.80248
11159,C'wealth Ave,Aft Ch of Our Saviour,11159 - Aft Ch of Our Saviour,1.298,103.80363
11161,C'wealth Ave,C'wealth Stn Exit A/D,11161 - C'wealth Stn Exit A/D,1.30213,103.79839
11169,C'wealth Ave,C'wealth Stn Exit B/C,11169 - C'wealth Stn Exit B/C,1.30271,103.79838
11171,C'wealth Ave,Opp Blk 7B,11171 - Opp Blk 7B,1.30536,103.7948
11179,C'wealth Ave,Blk 8,11179 - Blk 8,1.30628,103.79428
11181,C'wealth Ave,Opp Blk 43,11181 - Opp Blk 43,1.30722,103.79228
11189,C'wealth Ave,Blk 43,11189 - Blk 43,1.3074,103.79254
11191,C'wealth Ave West,The Star Vista,11191 - The Star Vista,1.30802,103.78837
11199,C'wealth Ave West,Blk 15,11199 - Blk 15,1.30838,103.78843
11201,Holland Rd,CSC Dempsey Clubhse,11201 - CSC Dempsey Clubhse,1.30693,103.81186
11209,Holland Rd,Opp Peirce Rd,11209 - Opp Peirce Rd,1.30817,103.81038
11211,Holland Rd,Aft Peirce Rd,11211 - Aft Peirce Rd,1.30839,103.8094
11219,Holland Rd,Great Eastern Mansions,11219 - Great Eastern Mansions,1.30989,103.80716
11221,Holland Rd,Lien Twrs,11221 - Lien Twrs,1.31002,103.80551
11229,Holland Rd,Sommerville Pk,11229 - Sommerville Pk,1.3106,103.80523
11231,Holland Rd,Aft Hyll on Holland,11231 - Aft Hyll on Holland,1.31115,103.8012
11239,Holland Rd,Fairlodge,11239 - Fairlodge,1.31153,103.80166
11259,Holland Dr,Opp Blk 21,11259 - Opp Blk 21,1.3112,103.79274
11261,Holland Rd,Holland Village,11261 - Holland Village,1.31223,103.79445
11269,Holland Rd,Opp Holland Village,11269 - Opp Holland Village,1.31256,103.79454
11271,Holland Rd,Aft East Sussex Lane,11271 - Aft East Sussex Lane,1.31473,103.79008
11279,Holland Rd,Aft Coronation Rd West,11279 - Aft Coronation Rd West,1.31467,103.79069
11281,Holland Rd,Aft Tan Boon Chong Ave,11281 - Aft Tan Boon Chong Ave,1.31623,103.78852
11289,Holland Rd,Opp Tan Boon Chong Ave,11289 - Opp Tan Boon Chong Ave,1.31619,103.78904
11291,Holland Rd,Cold Storage Jelita,11291 - Cold Storage Jelita,1.31793,103.78592
11299,Holland Rd,Opp Cold Storage Jelita,11299 - Opp Cold Storage Jelita,1.31827,103.78559
11301,Sixth Ave,Hse No. 578,11301 - Hse No. 578,1.31804,103.7879
11309,Sixth Ave,Hse No. 589,11309 - Hse No. 589,1.31862,103.78843
11311,Sixth Ave,Hse No. 532,11311 - Hse No. 532,1.3199,103.78919
11319,Sixth Ave,Opp Hse No. 516,11319 - Opp Hse No. 516,1.32031,103.7896
11321,Sixth Ave,Opp Regent Villa,11321 - Opp Regent Villa,1.32123,103.7901
11329,Sixth Ave,Regent Villa,11329 - Regent Villa,1.32236,103.79098
11331,Sixth Ave,Opp Dynasty Gdn II,11331 - Opp Dynasty Gdn II,1.32321,103.79145
11339,Sixth Ave,Dynasty Lodge,11339 - Dynasty Lodge,1.32399,103.79205
11341,Sixth Ave,Garlick Ville,11341 - Garlick Ville,1.32552,103.79283
11349,Sixth Ave,Opp Garlick Ville,11349 - Opp Garlick Ville,1.32563,103.79304
11351,Ghim Moh Rd,Blk 13,11351 - Blk 13,1.30935,103.78945
11359,Ghim Moh Rd,Opp Blk 13,11359 - Opp Blk 13,1.30931,103.78969
11361,Nth Buona Vista Rd,Buona Vista Stn Exit C,11361 - Buona Vista Stn Exit C,1.3065,103.79058
11369,Nth Buona Vista Rd,Buona Vista Stn Exit D,11369 - Buona Vista Stn Exit D,1.30633,103.79085
11381,Holland Dr,Blk 10A,11381 - Blk 10A,1.30841,103.79328
11389,Holland Dr,Buona Vista CC,11389 - Buona Vista CC,1.30907,103.79293
11401,Holland Ave,Holland V Stn/Blk12,11401 - Holland V Stn/Blk12,1.30907,103.79507
11409,Holland Ave,Blk 9,11409 - Blk 9,1.30764,103.79433
11419,Holland Ave,Holland V Stn Exit A,11419 - Holland V Stn Exit A,1.31103,103.79604
11429,C'wealth Dr,Opp Blk 115B,11429 - Opp Blk 115B,1.30454,103.79836
11439,C'wealth Dr,Blk 92,11439 - Blk 92,1.30606,103.8003
11441,C'wealth Dr,Blk 58,11441 - Blk 58,1.2978,103.79754
11449,C'wealth Dr,Blk 37B,11449 - Blk 37B,1.29841,103.7976
11451,C'wealth Dr,Blk 72,11451 - Blk 72,1.30035,103.79707
11459,C'wealth Dr,Blk 50,11459 - Blk 50,1.30097,103.79685
11469,Margaret Dr,Queensway Sec Sch,11469 - Queensway Sec Sch,1.30114,103.80189
11471,Margaret Dr,Opp The Fisherman Ch,11471 - Opp The Fisherman Ch,1.29952,103.80315
11481,Margaret Dr,Queenstown Lib,11481 - Queenstown Lib,1.29812,103.80601
11489,Margaret Dr,Blk 30,11489 - Blk 30,1.29882,103.8044
11491,Margaret Dr,Opp Queenstown Pr Sch,11491 - Opp Queenstown Pr Sch,1.2971,103.80764
11499,Margaret Dr,Queenstown Pr Sch,11499 - Queenstown Pr Sch,1.29685,103.80789
11511,Alexandra Rd,Alexandra Hosp,11511 - Alexandra Hosp,1.28595,103.80252
11519,Alexandra Rd,Opp Queensway Shop Ctr,11519 - Opp Queensway Shop Ctr,1.28666,103.80334
11521,Alexandra Rd,Anchorpoint,11521 - Anchorpoint,1.28857,103.80543
11529,Alexandra Rd,Bef IKEA Ind Bldg,11529 - Bef IKEA Ind Bldg,1.28903,103.80609
11531,Alexandra Rd,Opp Lea Hin Hardware Fty,11531 - Opp Lea Hin Hardware Fty,1.29109,103.80753
11539,Alexandra Rd,Lea Hin Hardware Fty,11539 - Lea Hin Hardware Fty,1.29117,103.80786
11541,Stirling Rd,Opp Queens,11541 - Opp Queens,1.29236,103.80579
11551,Stirling Rd,Tiong Ghee Tp,11551 - Tiong Ghee Tp,1.29127,103.8041
11561,Stirling Rd,Blk 166,11561 - Blk 166,1.29107,103.80248
11579,Mei Ling St,Blk 158,11579 - Blk 158,1.29256,103.80303
11589,Mei Ling St,Blk 157,11589 - Blk 157,1.29299,103.80401
11599,Mei Ling St,Blk 153,11599 - Blk 153,1.29421,103.80315
11609,Mei Chin Rd,Blk 163,11609 - Blk 163,1.29189,103.80212
12021,Holland Rd,Bef Moonbeam Wk,12021 - Bef Moonbeam Wk,1.31908,103.78243
12029,Holland Rd,Opp Moonbeam Wk,12029 - Opp Moonbeam Wk,1.31958,103.78244
12031,Ulu Pandan Rd,Pandan Valley Condo,12031 - Pandan Valley Condo,1.3208,103.77963
12039,Ulu Pandan Rd,Opp Pandan Valley Condo,12039 - Opp Pandan Valley Condo,1.32105,103.78019
12041,Ulu Pandan Rd,Aft Pandan Valley,12041 - Aft Pandan Valley,1.32049,103.77653
12049,Ulu Pandan Rd,Opp Pandan Valley,12049 - Opp Pandan Valley,1.32091,103.77656
12051,Ulu Pandan Rd,Pine Gr Condo,12051 - Pine Gr Condo,1.32043,103.77506
12059,Ulu Pandan Rd,Opp Pine Gr Condo,12059 - Opp Pine Gr Condo,1.32073,103.77516
12061,Clementi Rd,Blk 109,12061 - Blk 109,1.32179,103.77087
12069,Clementi Rd,Opp Blk 109A,12069 - Opp Blk 109A,1.32143,103.77105
12071,Clementi Rd,Blk 116,12071 - Blk 116,1.32402,103.77219
12079,Clementi Rd,Opp Blk 116,12079 - Opp Blk 116,1.32383,103.77263
12081,Clementi Rd,Clementi N'hood Pk,12081 - Clementi N'hood Pk,1.32647,103.77543
12089,Clementi Rd,Opp Maju Camp,12089 - Opp Maju Camp,1.32626,103.77571
12091,Clementi Rd,SIM Campus,12091 - SIM Campus,1.32918,103.77715
12099,Clementi Rd,Opp SIM Campus,12099 - Opp SIM Campus,1.32784,103.77671
12101,Clementi Rd,Ngee Ann Poly,12101 - Ngee Ann Poly,1.33244,103.77769
12109,Clementi Rd,Opp Ngee Ann Poly,12109 - Opp Ngee Ann Poly,1.33082,103.77801
12111,Ulu Pandan Rd,Bef Clementi Rd,12111 - Bef Clementi Rd,1.31912,103.77223
12119,Ulu Pandan Rd,Police KINS Trg Camp,12119 - Police KINS Trg Camp,1.31965,103.77279
12121,Ghim Moh Rd,Blk 7,12121 - Blk 7,1.31165,103.78715
12129,Ghim Moh Rd,Blk 3,12129 - Blk 3,1.31182,103.78733
12131,Mt Sinai Rd,Aft Grove Ave,12131 - Aft Grove Ave,1.31416,103.78506
12139,Mt Sinai Rd,Aft Mt Sinai Lane,12139 - Aft Mt Sinai Lane,1.31453,103.78504
12141,Mt Sinai Rd,Opp Henry Pk,12141 - Opp Henry Pk,1.31574,103.78239
12149,Mt Sinai Rd,Henry Pk,12149 - Henry Pk,1.31577,103.78266
12151,Moonbeam Walk,Bef Moonbeam Terr,12151 - Bef Moonbeam Terr,1.31865,103.78128
12169,Pandan Valley,Pandan Valley,12169 - Pandan Valley,1.31917,103.77724
12179,Mt Sinai Rise,Montview,12179 - Montview,1.3168,103.77699
12189,Mt Sinai Rise,Bef Mt Sinai Dr,12189 - Bef Mt Sinai Dr,1.31643,103.78022
12199,Mt Sinai Rise,Opp Village Twr,12199 - Opp Village Twr,1.31548,103.77821
12201,Clementi Ave 6,LogisHub @ Clementi,12201 - LogisHub @ Clementi,1.32671,103.764
12209,Clementi Ave 6,Opp LogisHub @ Clementi,12209 - Opp LogisHub @ Clementi,1.32653,103.7643
12211,Mt Sinai Dr,Bef Mt Sinai Wk,12211 - Bef Mt Sinai Wk,1.31721,103.78071
13011,Napier Rd,Napier Stn Exit 2,13011 - Napier Stn Exit 2,1.3065,103.81932
13019,Napier Rd,Napier Stn Exit 1,13019 - Napier Stn Exit 1,1.30674,103.82013
13021,Holland Rd,Aft Min of Foreign Affairs,13021 - Aft Min of Foreign Affairs,1.30634,103.81431
13029,Holland Rd,Bef Tyersall Ave,13029 - Bef Tyersall Ave,1.30672,103.81452
13031,Tanglin Rd,Opp Chatsworth Rd,13031 - Opp Chatsworth Rd,1.29913,103.81707
13039,Tanglin Rd,Bef Chatsworth Rd,13039 - Bef Chatsworth Rd,1.29982,103.81744
13041,Tanglin Rd,Aft Camp Rd,13041 - Aft Camp Rd,1.30243,103.81968
13049,Tanglin Rd,Bef Rochalie Dr,13049 - Bef Rochalie Dr,1.30262,103.82045
13051,River Valley Rd,Opp Valley Pt,13051 - Opp Valley Pt,1.29334,103.82637
13059,River Valley Rd,Valley Pt,13059 - Valley Pt,1.29328,103.82663
13062,River Valley Rd,Stellar RV,13062 - Stellar RV,1.29477,103.82853
13063,River Valley Rd,RV Suites,13063 - RV Suites,1.29535,103.82964
13069,River Valley Rd,RV Residences,13069 - RV Residences,1.29488,103.82881
13071,River Valley Rd,Great World Stn Exit 5,13071 - Great World Stn Exit 5,1.29634,103.83294
13079,River Valley Rd,Great World Stn Exit 4,13079 - Great World Stn Exit 4,1.29612,103.83229
13081,River Valley Rd,St. Thomas Wk,13081 - St. Thomas Wk,1.29591,103.83624
13089,River Valley Rd,Opp St. Thomas Wk,13089 - Opp St. Thomas Wk,1.29575,103.83604
13091,River Valley Rd,Aft Kim Yam Rd,13091 - Aft Kim Yam Rd,1.29593,103.83938
13099,River Valley Rd,Bef Kim Yam Rd,13099 - Bef Kim Yam Rd,1.29578,103.83961
13101,River Valley Rd,Opp Mohd Sultan Rd,13101 - Opp Mohd Sultan Rd,1.29414,103.84231
13109,River Valley Rd,UE Sq/Bef Mohd Sultan Rd,13109 - UE Sq/Bef Mohd Sultan Rd,1.29351,103.84272
13119,Kim Seng Rd,Great World Stn Exit 3,13119 - Great World Stn Exit 3,1.29425,103.8325
13121,Zion Rd,Opp Great World City,13121 - Opp Great World City,1.29409,103.83084
13141,Hoot Kiam Rd,Aft Zion Full Gospel Ch,13141 - Aft Zion Full Gospel Ch,1.29764,103.82998
13159,Irwell Bank Rd,Bef Zion Full Gospel Ch,13159 - Bef Zion Full Gospel Ch,1.29796,103.83053
13169,Grange Rd,Grange 80 Condo,13169 - Grange 80 Condo,1.2991,103.82839
13171,Grange Rd,Gramercy Pk,13171 - Gramercy Pk,1.29907,103.82651
13179,Grange Rd,Cliveden At Grange,13179 - Cliveden At Grange,1.29926,103.82665
13181,Grange Rd,Aft One Tree Hill,13181 - Aft One Tree Hill,1.30023,103.82403
13189,Grange Rd,Bef One Tree Hill,13189 - Bef One Tree Hill,1.30038,103.82415
13191,Paterson Rd,Opp Orchard Stn Exit 12,13191 - Opp Orchard Stn Exit 12,1.30246,103.82978
13199,Paterson Rd,Aft Orchard Stn Exit 12,13199 - Aft Orchard Stn Exit 12,1.30213,103.82988
13201,Tanglin Rd,British High Commission,13201 - British High Commission,1.30454,103.8221
13209,Tanglin Rd,Opp British High Comsn,13209 - Opp British High Comsn,1.30403,103.82206
14009,Seah Im Rd,HarbourFront Int,14009 - HarbourFront Int,1.26704,103.81901
14011,Kg Bahru Rd,Bef Mt Faber Lodge,14011 - Bef Mt Faber Lodge,1.26795,103.82553
14019,Kg Bahru Rd,Opp Mt Faber Lodge,14019 - Opp Mt Faber Lodge,1.26849,103.82572
14021,Lower Delta Rd,The Pearl @ Mt Faber,14021 - The Pearl @ Mt Faber,1.27133,103.82478
14029,Lower Delta Rd,Blk 105,14029 - Blk 105,1.27247,103.82419
14031,Lower Delta Rd,St. Theresa's Convent,14031 - St. Theresa's Convent,1.27624,103.82306
14039,Lower Delta Rd,Opp St. Theresa's Convent,14039 - Opp St. Theresa's Convent,1.27664,103.82346
14041,Henderson Rd,Blk 54,14041 - Blk 54,1.27327,103.81247
14049,Henderson Rd,Opp Blk 55,14049 - Opp Blk 55,1.27324,103.81304
14051,Henderson Rd,Aft Telok Blangah Hts,14051 - Aft Telok Blangah Hts,1.27585,103.81516
14059,Henderson Rd,Bef Telok Blangah Hts,14059 - Bef Telok Blangah Hts,1.27603,103.81561
14061,Keppel Rd,Opp Former Railway Stn,14061 - Opp Former Railway Stn,1.27231,103.83862
14069,Keppel Rd,Former Railway Stn,14069 - Former Railway Stn,1.27254,103.83641
14071,Keppel Rd,Keppel Workshop,14071 - Keppel Workshop,1.2722,103.8339
14081,Keppel Rd,Tg Pagar DP Blk F5,14081 - Tg Pagar DP Blk F5,1.2709,103.83089
14089,Keppel Rd,Opp Tg Pagar DP Blk F5,14089 - Opp Tg Pagar DP Blk F5,1.27046,103.82979
14101,Keppel Rd,Opp Keppel DP Blk 517,14101 - Opp Keppel DP Blk 517,1.26838,103.82826
14109,Keppel Rd,Keppel DP Blk 517,14109 - Keppel DP Blk 517,1.26805,103.82722
14119,Telok Blangah Rd,Opp VivoCity,14119 - Opp VivoCity,1.26592,103.82228
14121,Telok Blangah Rd,Opp HarbourFront Int,14121 - Opp HarbourFront Int,1.26591,103.81926
14129,Telok Blangah Rd,HarbourFront Stn Exit A,14129 - HarbourFront Stn Exit A,1.26608,103.81978
14131,Telok Blangah Rd,Caribbean at Keppel Bay,14131 - Caribbean at Keppel Bay,1.2674,103.81675
14139,Telok Blangah Rd,Bef Seah Im Rd,14139 - Bef Seah Im Rd,1.26864,103.81547
14141,Telok Blangah Rd,HarbourFront Stn/Vivocity,14141 - HarbourFront Stn/Vivocity,1.26552,103.82211
14151,Telok Blangah Rd,Opp Chr Community Chapel,14151 - Opp Chr Community Chapel,1.26965,103.81294
14159,Telok Blangah Rd,Bef Chr Community Chapel,14159 - Bef Chr Community Chapel,1.26994,103.81315
14161,Telok Blangah Rd,Telok Blangah Stn,14161 - Telok Blangah Stn,1.27076,103.8101
14169,Telok Blangah Rd,Opp Telok Blangah Stn,14169 - Opp Telok Blangah Stn,1.27119,103.80942
14171,Telok Blangah Rd,Opp Yeo's Bldg,14171 - Opp Yeo's Bldg,1.27146,103.80655
14179,Telok Blangah Rd,Yeo's Bldg,14179 - Yeo's Bldg,1.27188,103.8063
14189,Telok Blangah Rd,Aft Alexandra Rd,14189 - Aft Alexandra Rd,1.27269,103.80398
14191,Depot Rd,Blk 105 CP,14191 - Blk 105 CP,1.28122,103.81211
14199,Depot Rd,Blk 118,14199 - Blk 118,1.28132,103.81275
14201,Depot Rd,Blk 110,14201 - Blk 110,1.28167,103.80915
14209,Depot Rd,Aft Hewlett Packard,14209 - Aft Hewlett Packard,1.28176,103.80959
14211,Depot Rd,ISS Intl Sch,14211 - ISS Intl Sch,1.28161,103.80522
14219,Depot Rd,Opp Blk 114,14219 - Opp Blk 114,1.28219,103.80685
14221,Kg Bahru Rd,Opp Ch of St. Teresa,14221 - Opp Ch of St. Teresa,1.27359,103.82893
14229,Kg Bahru Rd,Ch of St. Teresa,14229 - Ch of St. Teresa,1.27371,103.82858
14231,Kg Bahru Rd,Keppel DP Blk 519,14231 - Keppel DP Blk 519,1.27101,103.82667
14239,Kg Bahru Rd,Opp Keppel DP Blk 519,14239 - Opp Keppel DP Blk 519,1.27178,103.82714
14241,Henderson Rd,Opp Blk 1,14241 - Opp Blk 1,1.27914,103.81687
14249,Henderson Rd,Blk 1,14249 - Blk 1,1.27927,103.8173
14259,Telok Blangah Cres,Blk 11,14259 - Blk 11,1.27785,103.81866
14269,Telok Blangah Cres,Blk 10,14269 - Blk 10,1.27758,103.81999
14271,Telok Blangah Way,Al-Amin Mque,14271 - Al-Amin Mque,1.27568,103.81915
14279,Telok Blangah Way,Blk 25,14279 - Blk 25,1.27592,103.81921
14281,Telok Blangah Way,Safra Mt Faber,14281 - Safra Mt Faber,1.277,103.81804
14291,Telok Blangah Way,Blk 27,14291 - Blk 27,1.27468,103.82133
14299,Telok Blangah Way,Opp Blk 27,14299 - Opp Blk 27,1.27489,103.82127
14309,Telok Blangah Rise,Blk 41,14309 - Blk 41,1.27129,103.82303
14319,Telok Blangah Rise,Blk 28,14319 - Blk 28,1.27348,103.82064
14329,Telok Blangah St 32,Blk 67,14329 - Blk 67,1.27455,103.80943
14331,Telok Blangah Hts,Opp Blk 70B,14331 - Opp Blk 70B,1.27695,103.81107
14339,Telok Blangah Hts,Blk 70A,14339 - Blk 70A,1.27666,103.81125
14341,Telok Blangah Hts,Opp Blk 59,14341 - Opp Blk 59,1.27593,103.81347
14349,Telok Blangah Hts,Blk 59,14349 - Blk 59,1.27579,103.8134
14351,Telok Blangah Dr,Aft Blk 48,14351 - Aft Blk 48,1.27275,103.81036
14359,Telok Blangah Dr,Blk 50,14359 - Blk 50,1.27289,103.81035
14369,Depot Rd,The Interlace,14369 - The Interlace,1.28154,103.80366
14379,Lower Delta Rd,Blk 40,14379 - Blk 40,1.27244,103.82379
14381,Bt Purmei Ave,Blk 109,14381 - Blk 109,1.27413,103.82554
14389,Bt Purmei Ave,Aft Radin Mas Pr Sch,14389 - Aft Radin Mas Pr Sch,1.27428,103.82501
14391,Telok Blangah Hts,Opp Blk 85,14391 - Opp Blk 85,1.27791,103.80859
14399,Telok Blangah Hts,Blk 85,14399 - Blk 85,1.27764,103.80859
14471,Depot Rd,Blk 114,14471 - Blk 114,1.28201,103.80665
14489,Telok Blangah Rise,Blk 36 Mkt/FC,14489 - Blk 36 Mkt/FC,1.27238,103.82159
14491,Telok Blangah Dr,Opp Telok Blangah Mkt/FC,14491 - Opp Telok Blangah Mkt/FC,1.27279,103.80795
14499,Telok Blangah Dr,Telok Blangah Mkt/FC,14499 - Telok Blangah Mkt/FC,1.27291,103.80782
14501,Telok Blangah St 31,Opp Blk 91A,14501 - Opp Blk 91A,1.27687,103.80648
14509,Telok Blangah St 31,Blk 92B,14509 - Blk 92B,1.27565,103.80681
14519,Sentosa Gateway,Resorts World Sentosa,14519 - Resorts World Sentosa,1.25352,103.8257
14521,Artillery Ave,Village Hotel,14521 - Village Hotel,1.2536,103.82043
14529,Artillery Ave,Opp Village Hotel,14529 - Opp Village Hotel,1.25323,103.82122
14539,Beach View,Beach Station Bus Terminal,14539 - Beach Station Bus Terminal,1.25143,103.81855
15041,Alexandra Rd,Alexandra Retail Ctr,15041 - Alexandra Retail Ctr,1.27463,103.80189
15049,Alexandra Rd,Opp Alexandra Retail Ctr,15049 - Opp Alexandra Retail Ctr,1.27459,103.80216
15051,Alexandra Rd,Alexandra Pt,15051 - Alexandra Pt,1.27698,103.80238
15059,Alexandra Rd,Opp Alexandra Pt,15059 - Opp Alexandra Pt,1.27686,103.8027
15071,Sth Buona Vista Rd,Opp Lor Sarhad,15071 - Opp Lor Sarhad,1.28142,103.78701
15079,Sth Buona Vista Rd,Aft Lor Sarhad,15079 - Aft Lor Sarhad,1.28078,103.78683
15091,Sth Buona Vista Rd,Opp Natl Leadership Inst,15091 - Opp Natl Leadership Inst,1.28291,103.78781
15099,Sth Buona Vista Rd,Natl Leadership Inst,15099 - Natl Leadership Inst,1.28306,103.78789
15101,Sth Buona Vista Rd,Opp LP 31,15101 - Opp LP 31,1.28618,103.78562
15109,Sth Buona Vista Rd,LP 30,15109 - LP 30,1.28592,103.78581
15111,Sth Buona Vista Rd,Sci Pk 2/The Galen,15111 - Sci Pk 2/The Galen,1.28676,103.78484
15119,Sth Buona Vista Rd,Opp Sci Pk 2/The Galen,15119 - Opp Sci Pk 2/The Galen,1.28704,103.78501
15121,Sth Buona Vista Rd,Sci Pk 2/The Gemini,15121 - Sci Pk 2/The Gemini,1.28894,103.78373
15129,Sth Buona Vista Rd,Opp Sci Pk 2/The Gemini,15129 - Opp Sci Pk 2/The Gemini,1.28916,103.78402
15131,Sth Buona Vista Rd,Kent Ridge Stn,15131 - Kent Ridge Stn,1.29254,103.78449
15139,Sth Buona Vista Rd,Kent Ridge Stn Exit B,15139 - Kent Ridge Stn Exit B,1.29241,103.78458
15141,Pasir Panjang Rd,Labrador Pk Stn,15141 - Labrador Pk Stn,1.27276,103.80096
15149,Pasir Panjang Rd,Opp Labrador Pk Stn,15149 - Opp Labrador Pk Stn,1.27342,103.80056
15151,Pasir Panjang Rd,Opp Mapletree Biz City,15151 - Opp Mapletree Biz City,1.27389,103.79822
15159,Pasir Panjang Rd,Mapletree Business City,15159 - Mapletree Business City,1.27426,103.79839
15161,Pasir Panjang Rd,Opp HarbourSide Bldg 2,15161 - Opp HarbourSide Bldg 2,1.27444,103.79666
15169,Pasir Panjang Rd,HarbourSide Bldg 2,15169 - HarbourSide Bldg 2,1.27481,103.79674
15181,Science Pk Dr,Opp Ascent,15181 - Opp Ascent,1.29108,103.78541
15189,Science Pk Dr,Ascent,15189 - Ascent,1.2908,103.7855
15191,Pasir Panjang Rd,Pasir Panjang Stn/FC,15191 - Pasir Panjang Stn/FC,1.27581,103.79264
15199,Pasir Panjang Rd,Opp Currency Hse,15199 - Opp Currency Hse,1.27604,103.79318
15201,Pasir Panjang Rd,Aft Pasir Panjang Stn,15201 - Aft Pasir Panjang Stn,1.27681,103.78971
15209,Pasir Panjang Rd,Bef Pasir Panjang Stn,15209 - Bef Pasir Panjang Stn,1.27707,103.79023
15211,Pasir Panjang Rd,Opp Pasir View Pk,15211 - Opp Pasir View Pk,1.27792,103.78643
15219,Pasir Panjang Rd,Pasir View Pk,15219 - Pasir View Pk,1.27818,103.78701
15221,Pasir Panjang Rd,Aft Sth Buona Vista Rd,15221 - Aft Sth Buona Vista Rd,1.2795,103.78549
15229,Pasir Panjang Rd,Bef Sth Buona Vista Rd,15229 - Bef Sth Buona Vista Rd,1.27938,103.78573
16009,Clementi Rd,Kent Ridge Ter,16009 - Kent Ridge Ter,1.29425,103.76988
16011,Pasir Panjang Rd,Opp Haw Par Villa Stn,16011 - Opp Haw Par Villa Stn,1.28278,103.78187
16019,Pasir Panjang Rd,Haw Par Villa Stn,16019 - Haw Par Villa Stn,1.28278,103.78218
16021,Pasir Panjang Rd,Opp Gloria Mansion,16021 - Opp Gloria Mansion,1.28626,103.77981
16029,Pasir Panjang Rd,Gloria Mansion,16029 - Gloria Mansion,1.28608,103.78022
16031,Pasir Panjang Rd,Opp S'pore Science Pk II,16031 - Opp S'pore Science Pk II,1.28801,103.77846
16039,Pasir Panjang Rd,S'pore Science Pk II,16039 - S'pore Science Pk II,1.28799,103.77872
16041,Pasir Panjang Rd,Opp Luxe Ville,16041 - Opp Luxe Ville,1.28931,103.7766
16049,Pasir Panjang Rd,Whitehaven,16049 - Whitehaven,1.28911,103.77739
16051,Pasir Panjang Rd,The Crystal Tabernacle Ch,16051 - The Crystal Tabernacle Ch,1.29015,103.77426
16059,Pasir Panjang Rd,Jamiyah Halfway Hse,16059 - Jamiyah Halfway Hse,1.28967,103.77593
16061,Pasir Panjang Rd,Opp Heng Mui Keng Terr,16061 - Opp Heng Mui Keng Terr,1.29046,103.77356
16069,Pasir Panjang Rd,Heng Mui Keng Terr,16069 - Heng Mui Keng Terr,1.29065,103.7737
16071,Pasir Panjang Rd,Opp Pasir Panjang PO,16071 - Opp Pasir Panjang PO,1.2913,103.77117
16079,Pasir Panjang Rd,Bef Pasir Panjang PO,16079 - Bef Pasir Panjang PO,1.29138,103.77129
16081,Pasir Panjang Rd,Aft Palm Green Condo,16081 - Aft Palm Green Condo,1.29196,103.76866
16089,Pasir Panjang Rd,Aft Clementi Rd,16089 - Aft Clementi Rd,1.29201,103.76908
16091,AYE,Opp SIT Dover,16091 - Opp SIT Dover,1.29948,103.77923
16099,AYE,SIT Dover,16099 - SIT Dover,1.30061,103.77815
16101,Science Pk Rd,Inst of Micro-electronics,16101 - Inst of Micro-electronics,1.28924,103.77969
16109,Science Pk Rd,The Alpha,16109 - The Alpha,1.28911,103.77951
16111,Science Pk Rd,Aries,16111 - Aries,1.28701,103.78283
16119,Science Pk Rd,Teletech Pk,16119 - Teletech Pk,1.28698,103.78261
16121,Science Pk Rd,Galen,16121 - Galen,1.28651,103.78345
16131,Clementi Rd,Opp Kent Ridge Ter,16131 - Opp Kent Ridge Ter,1.29488,103.76935
16139,Clementi Rd,Bef Kent Ridge Ter,16139 - Bef Kent Ridge Ter,1.29538,103.76975
16141,Clementi Rd,Tentera Diraja Mque,16141 - Tentera Diraja Mque,1.29787,103.7696
16149,Clementi Rd,SDE3,16149 - SDE3,1.29782,103.76994
16151,Clementi Rd,The Japanese Pr Sch,16151 - The Japanese Pr Sch,1.30076,103.76994
16159,Clementi Rd,Coll of Design & Engrg,16159 - Coll of Design & Engrg,1.3006,103.77017
16161,Kent Ridge Cres,NUS Museums,16161 - NUS Museums,1.30108,103.77369
16169,Kent Ridge Cres,NUS Raffles Hall,16169 - NUS Raffles Hall,1.30098,103.7727
16171,Kent Ridge Cres,Yusof Ishak Hse,16171 - Yusof Ishak Hse,1.2989,103.77438
16179,Kent Ridge Cres,Opp Yusof Ishak Hse,16179 - Opp Yusof Ishak Hse,1.29898,103.77418
16181,Kent Ridge Cres,Ctrl Lib,16181 - Ctrl Lib,1.29657,103.77254
16189,Kent Ridge Cres,Information Technology,16189 - Information Technology,1.29723,103.77276
16191,Kent Ridge Cres,Aft Kent Ridge Dr,16191 - Aft Kent Ridge Dr,1.29614,103.77037
16199,Kent Ridge Cres,Aft Architecture Dr,16199 - Aft Architecture Dr,1.29639,103.77073
16201,Pasir Panjang Rd,Barossa Gdns,16201 - Barossa Gdns,1.2813,103.78411
16209,Pasir Panjang Rd,Horizon Residences,16209 - Horizon Residences,1.28159,103.78401
16211,West Coast Highway,Wharves Bldg,16211 - Wharves Bldg,1.27942,103.78358
16219,West Coast Highway,Opp Wharves Bldg,16219 - Opp Wharves Bldg,1.28016,103.78362
16221,West Coast Highway,Opp Haw Par Villa Stn,16221 - Opp Haw Par Villa Stn,1.28298,103.78118
16229,West Coast Highway,Haw Par Villa Stn,16229 - Haw Par Villa Stn,1.28301,103.7816
16231,West Coast Highway,Wholesale Ctr,16231 - Wholesale Ctr,1.28636,103.77853
16239,West Coast Highway,Opp Wholesale Ctr,16239 - Opp Wholesale Ctr,1.28644,103.77893
16241,West Coast Highway,Bef West Coast Pk,16241 - Bef West Coast Pk,1.2891,103.77353
16249,West Coast Highway,Bef Wholesale Ctr,16249 - Bef Wholesale Ctr,1.28928,103.77401
16891,Clementi Ave 1,Opp Blk 420A,16891 - Opp Blk 420A,1.30982,103.76816
16991,Clementi Ave 1,Opp Nan Hua High Sch,16991 - Opp Nan Hua High Sch,1.30778,103.76989
17009,Clementi Ave 3,Clementi Int,17009 - Clementi Int,1.31492,103.76412
17011,West Coast Rd,Opp Varsity Pk,17011 - Opp Varsity Pk,1.29387,103.76688
17019,West Coast Rd,Varsity Pk,17019 - Varsity Pk,1.2938,103.76705
17021,West Coast Rd,Waseda S Snr High Sch,17021 - Waseda S Snr High Sch,1.29674,103.76691
17029,West Coast Rd,Opp Waseda S Snr High Sch,17029 - Opp Waseda S Snr High Sch,1.29695,103.7671
17031,West Coast Rd,Kent Ridge Sec Sch,17031 - Kent Ridge Sec Sch,1.30172,103.76568
17039,West Coast Rd,Opp Kent Ridge Sec Sch,17039 - Opp Kent Ridge Sec Sch,1.30153,103.76606
17041,West Coast Rd,Blk 726 Clementi West Mkt,17041 - Blk 726 Clementi West Mkt,1.30421,103.76456
17049,West Coast Rd,Blk 601,17049 - Blk 601,1.30471,103.7646
17051,Clementi Ave 6,Opp Regent Pk,17051 - Opp Regent Pk,1.31726,103.7624
17059,Clementi Ave 6,Regent Pk,17059 - Regent Pk,1.31694,103.7617
17061,West Coast Rd,Blk 701,17061 - Blk 701,1.30776,103.76181
17069,West Coast Rd,Opp Blk 701,17069 - Opp Blk 701,1.30777,103.76214
17071,West Coast Rd,Blk 513,17071 - Blk 513,1.30892,103.76044
17079,West Coast Rd,Blk 512,17079 - Blk 512,1.30968,103.75999
17081,West Coast Link,Aft West Coast Highway,17081 - Aft West Coast Highway,1.2995,103.76458
17089,West Coast Link,Before West Coast Crescent,17089 - Before West Coast Crescent,1.29968,103.76543
17091,Clementi Rd,Aft Clementi Ave 1,17091 - Aft Clementi Ave 1,1.30905,103.77158
17099,Clementi Rd,Yale-NUS College,17099 - Yale-NUS College,1.30783,103.77165
17101,Clementi Rd,Blk 352,17101 - Blk 352,1.31487,103.77179
17109,Clementi Rd,Opp Blk 352,17109 - Opp Blk 352,1.31553,103.77218
17111,Clementi Rd,Blk 343,17111 - Blk 343,1.3178,103.77125
17119,Clementi Rd,Opp Blk 343,17119 - Opp Blk 343,1.31728,103.77193
17121,AYE,Blk 610,17121 - Blk 610,1.30476,103.76945
17129,AYE,Aft NUS High Sch,17129 - Aft NUS High Sch,1.30514,103.76986
17131,AYE,Clementi Flyover,17131 - Clementi Flyover,1.30804,103.76591
17139,AYE,Aft Clementi Ave 2,17139 - Aft Clementi Ave 2,1.30765,103.76674
17141,AYE,Clementi Stadium,17141 - Clementi Stadium,1.311,103.7635
17149,AYE,Blk 426,17149 - Blk 426,1.31172,103.76346
17151,C'wealth Ave West,Blk 410,17151 - Blk 410,1.3117,103.76961
17159,C'wealth Ave West,Blk 365,17159 - Blk 365,1.31197,103.76982
17161,C'wealth Ave West,Blk 455,17161 - Blk 455,1.31241,103.76685
17169,C'wealth Ave West,Blk 329,17169 - Blk 329,1.31285,103.7668
17171,C'wealth Ave West,Clementi Stn Exit A,17171 - Clementi Stn Exit A,1.31497,103.76503
17179,C'wealth Ave West,Clementi Stn Exit B,17179 - Clementi Stn Exit B,1.31528,103.76536
17181,C'wealth Ave West,Opp Blk 317,17181 - Opp Blk 317,1.3175,103.76389
17189,C'wealth Ave West,Blk 317,17189 - Blk 317,1.31791,103.76406
17191,Clementi Rd,NUS High Sch,17191 - NUS High Sch,1.30567,103.76989
17201,Clementi Ave 4,Blk 308,17201 - Blk 308,1.32056,103.76735
17211,Clementi Ave 4,Bet Blks 315/318,17211 - Bet Blks 315/318,1.31829,103.7659
17219,Clementi Ave 4,Blk 376,17219 - Blk 376,1.3182,103.76616
17221,Clementi Ave 5,Blk 377,17221 - Blk 377,1.31736,103.7679
17229,Clementi Ave 5,Blk 335,17229 - Blk 335,1.31728,103.76824
17239,Clementi Ave 3,NTUC Fairprice,17239 - NTUC Fairprice,1.31244,103.76585
17241,Clementi Ave 2,Blk 334,17241 - Blk 334,1.31519,103.76906
17249,Clementi Ave 2,Blk 355,17249 - Blk 355,1.31517,103.76934
17251,Clementi Ave 2,Blk 460,17251 - Blk 460,1.31148,103.76744
17259,Clementi Ave 2,Opp Blk 460,17259 - Opp Blk 460,1.31093,103.76746
17269,Clementi West St 2,Blk 730,17269 - Blk 730,1.30514,103.76274
17279,Clementi West St 2,Blk 723,17279 - Blk 723,1.30292,103.76319
17289,Clementi West St 2,West Coast CC,17289 - West Coast CC,1.30232,103.76471
17291,West Coast Highway,West Coast Pk,17291 - West Coast Pk,1.29035,103.7697
17299,West Coast Highway,Opp West Coast Pk,17299 - Opp West Coast Pk,1.29061,103.77005
17301,West Coast Highway,Opp West Coast View,17301 - Opp West Coast View,1.29495,103.76517
17309,West Coast Highway,West Coast View,17309 - West Coast View,1.29537,103.76525
17311,West Coast Highway,Opp Blk 801C,17311 - Opp Blk 801C,1.30102,103.76229
17319,West Coast Highway,Blk 716,17319 - Blk 716,1.30184,103.7623
17321,West Coast Highway,Tien Wah Press Bldg,17321 - Tien Wah Press Bldg,1.30483,103.76035
17329,West Coast Highway,Blk 705,17329 - Blk 705,1.30505,103.76058
17331,West Coast Highway,Opp Blk 518,17331 - Opp Blk 518,1.30759,103.75833
17339,West Coast Highway,Blk 518,17339 - Blk 518,1.30786,103.7585
17351,West Coast Highway,Aft Clementi Rd,17351 - Aft Clementi Rd,1.29358,103.76576
17359,West Coast Highway,Bef Clementi Rd,17359 - Bef Clementi Rd,1.29334,103.76622
17361,West Coast Highway,Opp West Coast Lk,17361 - Opp West Coast Lk,1.2986,103.76346
17369,West Coast Highway,Aft West Coast Lk,17369 - Aft West Coast Lk,1.29841,103.76387
17371,Clementi Ave 6,Blk 201,17371 - Blk 201,1.32058,103.76357
17379,Clementi Ave 6,Blk 304,17379 - Blk 304,1.32049,103.76389
17381,West Coast Rd,West Bay Resort Condo,17381 - West Bay Resort Condo,1.29908,103.76686
17389,West Coast Rd,Opp West Bay Resort Condo,17389 - Opp West Bay Resort Condo,1.29908,103.767
18011,Alexandra Rd,Aft Hortpark,18011 - Aft Hortpark,1.28087,103.8021
18019,Alexandra Rd,Bef Telok Blangah Hill Pk,18019 - Bef Telok Blangah Hill Pk,1.28091,103.80252
18021,Ayer Rajah Cres,Opp Tempco Mfg,18021 - Opp Tempco Mfg,1.29645,103.78892
18029,Ayer Rajah Cres,Tempco Mfg,18029 - Tempco Mfg,1.2961,103.78918
18041,AYE,Normanton Pk,18041 - Normanton Pk,1.28836,103.79317
18049,AYE,Opp Science Pk,18049 - Opp Science Pk,1.29018,103.79208
18051,Ayer Rajah Ave,One-North Stn,18051 - One-North Stn,1.29864,103.78734
18059,Ayer Rajah Ave,Opp One-North Stn,18059 - Opp One-North Stn,1.29849,103.78721
18061,Ayer Rajah Cres,Blk 71,18061 - Blk 71,1.29672,103.78738
18069,Ayer Rajah Cres,Opp Blk 71,18069 - Opp Blk 71,1.29649,103.78755
18071,Buona Vista Flyover,NUH,18071 - NUH,1.29543,103.78449
18079,Buona Vista Flyover,Opp NUH,18079 - Opp NUH,1.29648,103.78455
18081,Ayer Rajah Cres,Blk 55,18081 - Blk 55,1.29479,103.78734
18089,Ayer Rajah Cres,S'pore Post,18089 - S'pore Post,1.29481,103.78757
18099,Ayer Rajah Cres,Bef Ayer Rajah Cres,18099 - Bef Ayer Rajah Cres,1.29393,103.78954
18101,Buona Vista Flyover,5 Sci Pk Dr,18101 - 5 Sci Pk Dr,1.29282,103.78635
18109,Buona Vista Flyover,Opp PSB Science Pk Bldg,18109 - Opp PSB Science Pk Bldg,1.29403,103.78673
18111,Dover Rd,Fairfield Meth Pr Sch,18111 - Fairfield Meth Pr Sch,1.30059,103.78448
18119,Dover Rd,Opp Fairfield Meth Pr Sch,18119 - Opp Fairfield Meth Pr Sch,1.30005,103.78467
18121,Buona Vista Flyover,Opp Ayer Rajah Ind Est,18121 - Opp Ayer Rajah Ind Est,1.29751,103.78542
18129,Buona Vista Flyover,Ayer Rajah Ind Est,18129 - Ayer Rajah Ind Est,1.29776,103.78571
18131,AYE,Science Pk,18131 - Science Pk,1.2895,103.79183
18141,Nth Buona Vista Rd,Aft Anglo-Chinese JC,18141 - Aft Anglo-Chinese JC,1.30418,103.78788
18149,Nth Buona Vista Rd,Essec Business Sch,18149 - Essec Business Sch,1.30253,103.78724
18151,Portsdown Rd,Opp One-North Stn/Galaxis,18151 - Opp One-North Stn/Galaxis,1.30051,103.78864
18159,Portsdown Rd,One-North Stn/Galaxis,18159 - One-North Stn/Galaxis,1.30035,103.78858
18171,Portsdown Rd,Bef Weyhill Cl,18171 - Bef Weyhill Cl,1.29905,103.79413
18179,Portsdown Rd,Opp Weyhill Cl,18179 - Opp Weyhill Cl,1.29988,103.79305
18181,Portsdown Rd,Opp Tanglin Trust Sch,18181 - Opp Tanglin Trust Sch,1.29715,103.79369
18189,Portsdown Rd,Tanglin Trust Sch,18189 - Tanglin Trust Sch,1.2984,103.7939
18191,Portsdown Rd,Bef Whitchurch Rd,18191 - Bef Whitchurch Rd,1.29446,103.79594
18199,Portsdown Rd,Aft Whitchurch Rd,18199 - Aft Whitchurch Rd,1.29544,103.79408
18201,Media Circle,Mediacorp Campus,18201 - Mediacorp Campus,1.29498,103.79323
18211,Portsdown Rd,Infinite Studios,18211 - Infinite Studios,1.29162,103.79522
18221,Lower Kent Ridge Rd,NUH,18221 - NUH,1.2963,103.78347
18239,Lower Kent Ridge Rd,Opp NUH,18239 - Opp NUH,1.29679,103.78319
18241,Science Pk Dr,Opp Dnv Technology Ctr,18241 - Opp Dnv Technology Ctr,1.29092,103.78708
18249,Science Pk Dr,DNV Technology Ctr,18249 - DNV Technology Ctr,1.29072,103.78713
18251,Science Pk Dr,Opp Reuters,18251 - Opp Reuters,1.29068,103.78845
18261,Science Pk Dr,Opp DSO Natl Laboratories,18261 - Opp DSO Natl Laboratories,1.29016,103.78934
18269,Science Pk Dr,Bef Reuters,18269 - Bef Reuters,1.2901,103.78919
18271,Science Pk Dr,Blk 85,18271 - Blk 85,1.28841,103.78993
18279,Science Pk Dr,Opp Blk 85,18279 - Opp Blk 85,1.28841,103.78977
18281,Science Pk Dr,Opp Normanton Pk/R'ford,18281 - Opp Normanton Pk/R'ford,1.28753,103.79121
18289,Science Pk Dr,Opp R'ford/Normanton Pk,18289 - Opp R'ford/Normanton Pk,1.28738,103.79121
18301,Lower Kent Ridge Rd,Lim Seng Tjoe Bldg (LT 27),18301 - Lim Seng Tjoe Bldg (LT 27),1.29739,103.78093
18309,Lower Kent Ridge Rd,Blk S17,18309 - Blk S17,1.29752,103.78134
18311,Lower Kent Ridge Rd,Blk S12,18311 - Blk S12,1.29744,103.77792
18319,Lower Kent Ridge Rd,Opp University Hall,18319 - Opp University Hall,1.29753,103.77813
18321,Lower Kent Ridge Rd,Opp University Health Ctr,18321 - Opp University Health Ctr,1.29879,103.77562
18329,Lower Kent Ridge Rd,University Health Ctr,18329 - University Health Ctr,1.29892,103.77611
18331,Lower Kent Ridge Rd,Kent Ridge Stn Exit A/NUH,18331 - Kent Ridge Stn Exit A/NUH,1.29371,103.78489
18339,Lower Kent Ridge Rd,Opp Kent Ridge Stn Exit A,18339 - Opp Kent Ridge Stn Exit A,1.29379,103.78508
19011,C'wealth Ave West,Blk 19A CP,19011 - Blk 19A CP,1.30782,103.78424
19019,C'wealth Ave West,Blk 27,19019 - Blk 27,1.30807,103.78476
19021,C'wealth Ave West,SP SMA,19021 - SP SMA,1.30965,103.7812
19029,C'wealth Ave West,Opp SP SMA,19029 - Opp SP SMA,1.30956,103.78202
19031,C'wealth Ave West,Dover Stn Exit A,19031 - Dover Stn Exit A,1.31123,103.77838
19039,C'wealth Ave West,Dover Stn Exit B,19039 - Dover Stn Exit B,1.31168,103.77868
19041,C'wealth Ave West,Opp Sch of Science & Tech,19041 - Opp Sch of Science & Tech,1.31236,103.77553
19049,C'wealth Ave West,Sch of Science & Tech,19049 - Sch of Science & Tech,1.31266,103.77479
19051,Dover Rd,New Town Sec Sch,19051 - New Town Sec Sch,1.30896,103.77392
19059,Dover Rd,University Town,19059 - University Town,1.30895,103.77272
19061,Dover Rd,Ayer Rajah Telecoms,19061 - Ayer Rajah Telecoms,1.30752,103.77782
19069,Dover Rd,Opp Ayer Rajah Telecoms,19069 - Opp Ayer Rajah Telecoms,1.30779,103.77671
19071,Dover Rd,Opp ACS Independent,19071 - Opp ACS Independent,1.30516,103.78108
19079,Dover Rd,Dover Ct Intl Sch,19079 - Dover Ct Intl Sch,1.30607,103.78013
19081,Dover Rd,Opp ACS Boarding Sch,19081 - Opp ACS Boarding Sch,1.30257,103.78282
19089,Dover Rd,ACS Independent,19089 - ACS Independent,1.3037,103.78184
19091,Dover Ave,S'pore Poly,19091 - S'pore Poly,1.30739,103.78208
19099,Dover Ave,Opp S'pore Poly,19099 - Opp S'pore Poly,1.30697,103.78191
20011,AYE,Blk 506,20011 - Blk 506,1.31309,103.76129
20019,AYE,Blk 431,20019 - Blk 431,1.31358,103.76151
20021,AYE,NEWest,20021 - NEWest,1.31676,103.75789
20029,AYE,Opp NEWest,20029 - Opp NEWest,1.31773,103.75768
20031,AYE,The Infiniti,20031 - The Infiniti,1.32056,103.75465
20039,AYE,Opp The Infiniti,20039 - Opp The Infiniti,1.32102,103.75472
20051,AYE,Cycle & Carriage,20051 - Cycle & Carriage,1.32259,103.74754
20059,AYE,Opp Cycle & Carriage,20059 - Opp Cycle & Carriage,1.32332,103.74769
20061,Jln Ahmad Ibrahim,Aft Jurong Town Hall Rd,20061 - Aft Jurong Town Hall Rd,1.32381,103.74299
20069,Jln Ahmad Ibrahim,Bef Jurong Town Hall Rd,20069 - Bef Jurong Town Hall Rd,1.32406,103.74419
20081,Jln Ahmad Ibrahim,Carrier S'pore,20081 - Carrier S'pore,1.3266,103.73879
20089,Jln Ahmad Ibrahim,Opp Carrier S'pore,20089 - Opp Carrier S'pore,1.32703,103.73922
20101,C'wealth Ave West,Nan Hua Pr Sch,20101 - Nan Hua Pr Sch,1.31994,103.76222
20109,C'wealth Ave West,Aft Clementi Fire Stn,20109 - Aft Clementi Fire Stn,1.32085,103.76207
20121,West Coast Rd,Opp Blk 51,20121 - Opp Blk 51,1.32024,103.73708
20129,West Coast Rd,Bet Blks 50/51,20129 - Bet Blks 50/51,1.32035,103.73754
20131,West Coast Rd,S'pore Food Industries Bldg,20131 - S'pore Food Industries Bldg,1.31559,103.75185
20139,West Coast Rd,Opp Angliss Bldg,20139 - Opp Angliss Bldg,1.31584,103.75204
20141,West Coast Rd,Opp Blk 408,20141 - Opp Blk 408,1.31772,103.74877
20149,West Coast Rd,Blk 408,20149 - Blk 408,1.31796,103.74897
20151,West Coast Rd,Opp Blk 411,20151 - Opp Blk 411,1.3183,103.74631
20159,West Coast Rd,Blk 411,20159 - Blk 411,1.31851,103.7464
20161,West Coast Rd,Opp Blks 34/35,20161 - Opp Blks 34/35,1.31915,103.74214
20169,West Coast Rd,Blk 35,20169 - Blk 35,1.31928,103.74251
20171,West Coast Rd,Opp Blk 47,20171 - Opp Blk 47,1.31968,103.73984
20179,West Coast Rd,Blk 31,20179 - Blk 31,1.32,103.7391
20181,Pandan Gdns,Ayer Rajah CC,20181 - Ayer Rajah CC,1.32048,103.74746
20189,Pandan Gdns,Opp Ayer Rajah CC,20189 - Opp Ayer Rajah CC,1.32031,103.74727
20191,Pandan Gdns,Blk 407,20191 - Blk 407,1.31924,103.74846
20199,Pandan Gdns,Blk 410,20199 - Blk 410,1.31908,103.7482
20201,Teban Gdns Rd,Bef Blk 39,20201 - Bef Blk 39,1.32128,103.74341
20209,Teban Gdns Rd,Bef Jurong Town Hall Rd,20209 - Bef Jurong Town Hall Rd,1.32043,103.74407
20211,Teban Gdns Rd,Blk 41,20211 - Blk 41,1.32177,103.74184
20219,Teban Gdns Rd,Opp Blk 41,20219 - Opp Blk 41,1.32206,103.74143
20231,Teban Gdns Rd,Bef Hasanah Mque,20231 - Bef Hasanah Mque,1.32234,103.73944
20239,Teban Gdns Rd,Aft Hasanah Mque,20239 - Aft Hasanah Mque,1.32247,103.73947
20241,Penjuru Rd,Opp Blk 54,20241 - Opp Blk 54,1.32116,103.73638
20249,Penjuru Rd,Blk 54,20249 - Blk 54,1.32162,103.7367
20251,Jurong Town Hall Rd,Bef Teban Gdns Rd,20251 - Bef Teban Gdns Rd,1.31976,103.74447
20259,Jurong Town Hall Rd,C'wealth Sec Sch,20259 - C'wealth Sec Sch,1.32014,103.74508
20261,Jurong Town Hall Rd,Aft Pandan Gdns,20261 - Aft Pandan Gdns,1.3216,103.74546
20269,Jurong Town Hall Rd,Bef Pandan Gdns,20269 - Bef Pandan Gdns,1.32152,103.74581
20271,Jurong Town Hall Rd,Opp German Ctr,20271 - Opp German Ctr,1.32528,103.74551
20281,West Coast Highway,Opp The Japanese Sec Sch,20281 - Opp The Japanese Sec Sch,1.31234,103.75484
20289,West Coast Highway,The Japanese Sec Sch,20289 - The Japanese Sec Sch,1.31249,103.75503
20291,West Coast Rd,Opp Blk 501,20291 - Opp Blk 501,1.31095,103.75771
20299,West Coast Rd,Blk 501,20299 - Blk 501,1.31093,103.75858
20309,Pandan Loop,Blk L Pandan Light Ind Pk,20309 - Blk L Pandan Light Ind Pk,1.31062,103.75404
20319,Pandan Loop,Blk T Pandan Light Ind Pk,20319 - Blk T Pandan Light Ind Pk,1.31259,103.75284
20329,Pandan Loop,S'pore Food Ind,20329 - S'pore Food Ind,1.31503,103.75102
20331,Pandan Loop,Vejoil Pte Ltd,20331 - Vejoil Pte Ltd,1.31329,103.74926
20341,Pandan Loop,Pan Tech Ind Cplx,20341 - Pan Tech Ind Cplx,1.31186,103.75047
21011,Jln Ahmad Ibrahim,Aft Jurong Lake,21011 - Aft Jurong Lake,1.32534,103.72867
21019,Jln Ahmad Ibrahim,Aft Yuan Ching Rd,21019 - Aft Yuan Ching Rd,1.32555,103.72703
21021,Jln Ahmad Ibrahim,Bef Jurong Port Rd,21021 - Bef Jurong Port Rd,1.32419,103.72379
21029,Jln Ahmad Ibrahim,Aft Corp Pl,21029 - Aft Corp Pl,1.3243,103.72181
21041,Jurong Port Rd,Aft Jln Terusan,21041 - Aft Jln Terusan,1.32092,103.72012
21049,Jurong Port Rd,Bef Jln Terusan,21049 - Bef Jln Terusan,1.32107,103.72025
21051,Jln Buroh,Bef Penjuru Rd,21051 - Bef Penjuru Rd,1.31226,103.73045
21059,Jln Buroh,Aft Penjuru Rd,21059 - Aft Penjuru Rd,1.31195,103.73014
21069,Jurong Port Rd,Bef Jln Tepong,21069 - Bef Jln Tepong,1.31237,103.71919
21071,Jln Buroh,Jurong Abattoir,21071 - Jurong Abattoir,1.31394,103.72227
21079,Jln Buroh,Opp Jurong Abattoir,21079 - Opp Jurong Abattoir,1.31343,103.7228
21089,Fishery Port Rd,Bef Jln Buroh,21089 - Bef Jln Buroh,1.31206,103.72296
21099,Jurong Pier Way,Jurong Island Checkpt,21099 - Jurong Island Checkpt,1.31014,103.7111
21109,Jln Tepong,Ctrl Fish Proc Fty,21109 - Ctrl Fish Proc Fty,1.311,103.7211
21111,Jln Buroh,Aft Jurong Pier Rd,21111 - Aft Jurong Pier Rd,1.31443,103.71238
21119,Jln Buroh,Bef Jurong Pier Rd,21119 - Bef Jurong Pier Rd,1.31397,103.71202
21121,Jln Buroh,SPC Svc Stn,21121 - SPC Svc Stn,1.31469,103.71602
21129,Jln Buroh,Opp SPC Svc Stn,21129 - Opp SPC Svc Stn,1.31427,103.71493
21131,Jln Buroh,Bef Jurong Port Rd,21131 - Bef Jurong Port Rd,1.31471,103.71799
21139,Jln Buroh,Aft Jurong Port Rd,21139 - Aft Jurong Port Rd,1.31433,103.71847
21141,Jurong Port Rd,Aft Jln Buroh,21141 - Aft Jln Buroh,1.31517,103.71957
21149,Jurong Port Rd,Jurong Port Workshops,21149 - Jurong Port Workshops,1.31563,103.7199
21151,Jurong Port Rd,CWT Distripark,21151 - CWT Distripark,1.31699,103.71989
21159,Jurong Port Rd,Sin Soon Huat,21159 - Sin Soon Huat,1.31869,103.72043
21161,Corporation Rd,Blk 216B,21161 - Blk 216B,1.35044,103.71274
21169,Corporation Rd,Opp Blk 216B,21169 - Opp Blk 216B,1.35074,103.71276
21171,Corporation Rd,Opp Corp Pl,21171 - Opp Corp Pl,1.32582,103.71907
21179,Corporation Rd,Corp Pl,21179 - Corp Pl,1.32586,103.7193
21181,Corporation Rd,Opp Blk 161,21181 - Opp Blk 161,1.32992,103.72095
21189,Corporation Rd,Blk 161,21189 - Blk 161,1.33026,103.72122
21191,Corporation Rd,Opp Blk 178,21191 - Opp Blk 178,1.33291,103.72045
21199,Corporation Rd,Blk 178,21199 - Blk 178,1.33331,103.72051
21201,Corporation Rd,Opp Taman Jurong Greens,21201 - Opp Taman Jurong Greens,1.33683,103.71779
21209,Corporation Rd,Taman Jurong Greens,21209 - Taman Jurong Greens,1.33688,103.71806
21211,Corporation Rd,Opp Lakepoint Condo,21211 - Opp Lakepoint Condo,1.34005,103.71607
21219,Corporation Rd,Lakepoint Condo,21219 - Lakepoint Condo,1.3401,103.71626
21229,Corporation Rd,Opp S'pore A'space Mfg,21229 - Opp S'pore A'space Mfg,1.34206,103.71601
21231,Corporation Rd,Blk 203,21231 - Blk 203,1.3436,103.71599
21239,Corporation Rd,Opp Blk 203,21239 - Opp Blk 203,1.3445,103.71633
21241,Boon Lay Ave,Blk 216 CP,21241 - Blk 216 CP,1.34974,103.71235
21249,Boon Lay Ave,Blk 213,21249 - Blk 213,1.34958,103.71249
21251,Chin Bee Dr,Bef Quality Rd,21251 - Bef Quality Rd,1.33624,103.71035
21259,Chin Bee Dr,Aft Quality Rd,21259 - Aft Quality Rd,1.33604,103.71044
21261,Quality Rd,Aft Chin Bee Ave,21261 - Aft Chin Bee Ave,1.33394,103.71025
21269,Quality Rd,Bef Chin Bee Ave,21269 - Bef Chin Bee Ave,1.33418,103.7105
21271,Corporation Rd,Opp Assyakirin Mque,21271 - Opp Assyakirin Mque,1.33466,103.71947
21279,Corporation Rd,Assyakirin Mque,21279 - Assyakirin Mque,1.33491,103.71953
21291,Jurong Pier Rd,Aft Jln Buroh,21291 - Aft Jln Buroh,1.31585,103.70943
21299,Jurong Pier Rd,Bef Jln Buroh,21299 - Bef Jln Buroh,1.31601,103.70992
21301,Jurong Pier Rd,Opp Jln Pesawat,21301 - Opp Jln Pesawat,1.32007,103.71014
21309,Jurong Pier Rd,Aft Jln Pesawat,21309 - Aft Jln Pesawat,1.31919,103.71055
21311,Jln Boon Lay,Bef Tractor Rd,21311 - Bef Tractor Rd,1.32312,103.70954
21319,Jln Boon Lay,Opp Tractor Rd,21319 - Opp Tractor Rd,1.32377,103.7098
21321,Jln Boon Lay,UTOC Engrg,21321 - UTOC Engrg,1.32624,103.70885
21329,Jln Boon Lay,Opp UTOC Engrg,21329 - Opp UTOC Engrg,1.32692,103.70902
21331,Jln Boon Lay,Opp Premier Milk Pte Ltd,21331 - Opp Premier Milk Pte Ltd,1.33029,103.70797
21339,Jln Boon Lay,Premier Milk Pte Ltd,21339 - Premier Milk Pte Ltd,1.32991,103.70831
21341,Jln Boon Lay,Opp GSK,21341 - Opp GSK,1.33517,103.70896
21349,Jln Boon Lay,GSK,21349 - GSK,1.33554,103.7093
21351,Jln Boon Lay,Bef Boon Lay Way,21351 - Bef Boon Lay Way,1.33882,103.70956
21359,Jln Boon Lay,Aft ST Kinetics,21359 - Aft ST Kinetics,1.33867,103.70996
21361,Jln Boon Lay,Blk 695,21361 - Blk 695,1.34302,103.70767
21369,Jln Boon Lay,Opp Blk 695,21369 - Opp Blk 695,1.34309,103.708
21371,Jln Boon Lay,Blk 680C,21371 - Blk 680C,1.34523,103.70618
21379,Jln Boon Lay,Blk 263,21379 - Blk 263,1.34535,103.70649
21381,Jurong West Ave 2,St. Joseph's Hme,21381 - St. Joseph's Hme,1.35046,103.70982
21389,Jurong West Ave 2,Opp St. Joseph's Hme,21389 - Opp St. Joseph's Hme,1.35006,103.70993
21391,Boon Lay Ave,River Valley High Sch,21391 - River Valley High Sch,1.34485,103.70848
21399,Boon Lay Ave,Opp River Valley High Sch,21399 - Opp River Valley High Sch,1.34481,103.70806
21409,Boon Lay Dr,Blk 191,21409 - Blk 191,1.34339,103.71207
21411,Boon Lay Dr,Opp Blk 188,21411 - Opp Blk 188,1.34393,103.71033
21419,Boon Lay Dr,Blk 188,21419 - Blk 188,1.34388,103.71058
21421,Boon Lay Ave,Blk 176,21421 - Blk 176,1.3472,103.71033
21429,Boon Lay Ave,Blk 185,21429 - Blk 185,1.3474,103.71059
21431,Boon Lay Pl,Blk 210,21431 - Blk 210,1.34766,103.71241
21439,Boon Lay Pl,Boon Lay CC,21439 - Boon Lay CC,1.34842,103.71166
21441,Boon Lay Pl,Blk 207,21441 - Blk 207,1.34638,103.71326
21449,Boon Lay Pl,Boon Lay Shop Ctr,21449 - Boon Lay Shop Ctr,1.3464,103.71306
21451,Boon Lay Dr,Blk 206,21451 - Blk 206,1.34525,103.71473
21459,Boon Lay Dr,Blk 209,21459 - Blk 209,1.34558,103.71491
21461,Jln Tukang,Bef Tukang Innovation Dr,21461 - Bef Tukang Innovation Dr,1.32732,103.71799
21469,Jln Tukang,Bef Chia Ping Rd,21469 - Bef Chia Ping Rd,1.32748,103.71809
21471,Jln Tukang,Bef Tukang Innovation Lane,21471 - Bef Tukang Innovation Lane,1.32673,103.71543
21479,Jln Tukang,Aft Tukang Innovation Lane,21479 - Aft Tukang Innovation Lane,1.32692,103.7157
21481,Jln Tukang,Grundfos,21481 - Grundfos,1.32595,103.71193
21489,Jln Tukang,Opp Grundfos,21489 - Opp Grundfos,1.32616,103.7122
21491,Quality Rd,Bef Intl Rd,21491 - Bef Intl Rd,1.32686,103.71083
21499,Quality Rd,Bef Jln Tukang,21499 - Bef Jln Tukang,1.32656,103.71102
21501,Quality Rd,Bef Meiji Seika,21501 - Bef Meiji Seika,1.33043,103.71
21509,Quality Rd,Opp Meiji Seika,21509 - Opp Meiji Seika,1.33116,103.70999
21511,Chin Bee Ave,Opp Amoy Canning,21511 - Opp Amoy Canning,1.33312,103.71108
21519,Chin Bee Ave,Amoy Canning,21519 - Amoy Canning,1.33296,103.71129
21521,Chin Bee Ave,PB Packaging Systems,21521 - PB Packaging Systems,1.33414,103.71459
21529,Chin Bee Ave,Aft Third Chin Bee Rd,21529 - Aft Third Chin Bee Rd,1.33408,103.7151
21531,Third Chin Bee Rd,Clariant S'pore,21531 - Clariant S'pore,1.33188,103.71634
21539,Third Chin Bee Rd,Opp Kaily Packaging,21539 - Opp Kaily Packaging,1.33131,103.71635
21541,Intl Rd,Aft Fourth Chin Bee Rd,21541 - Aft Fourth Chin Bee Rd,1.33138,103.71986
21549,Intl Rd,Automotive Technology,21549 - Automotive Technology,1.33088,103.719
21551,Yung Ho Rd,Blk 151,21551 - Blk 151,1.32666,103.72099
21559,Yung Ho Rd,CISCO Recall,21559 - CISCO Recall,1.32663,103.72064
21561,Corporation Dr,Blk 158,21561 - Blk 158,1.3288,103.72275
21569,Corporation Dr,Opp Blk 158,21569 - Opp Blk 158,1.32857,103.7229
21571,Corporation Dr,Opp Jurong Sec Sch,21571 - Opp Jurong Sec Sch,1.33057,103.72307
21579,Corporation Dr,Jurong Sec Sch,21579 - Jurong Sec Sch,1.33013,103.72318
21581,Corporation Dr,Blk 65,21581 - Blk 65,1.33243,103.72329
21589,Corporation Dr,Opp Blk 65,21589 - Opp Blk 65,1.33247,103.72346
21591,Corporation Dr,Opp Blk 117,21591 - Opp Blk 117,1.33476,103.72243
21599,Corporation Dr,Blk 117,21599 - Blk 117,1.33468,103.72268
21601,Corporation Dr,Blk 357,21601 - Blk 357,1.33727,103.7211
21609,Corporation Dr,Opp Blk 364,21609 - Opp Blk 364,1.33775,103.72103
21611,Corporation Dr,Blk 367,21611 - Blk 367,1.33836,103.71932
21619,Corporation Dr,Aft Corp Rd,21619 - Aft Corp Rd,1.33794,103.71816
21621,Kang Ching Rd,Blk 354,21621 - Blk 354,1.33921,103.72206
21629,Kang Ching Rd,Blk 334,21629 - Blk 334,1.33967,103.72282
21631,Yuan Ching Rd,Blk 115,21631 - Blk 115,1.33364,103.72494
21639,Yuan Ching Rd,Opp Blk 115,21639 - Opp Blk 115,1.33379,103.72512
21641,Yuan Ching Rd,Bef Blk 322,21641 - Bef Blk 322,1.3363,103.72501
21649,Yuan Ching Rd,Opp Blk 322,21649 - Opp Blk 322,1.33671,103.72518
21651,Yuan Ching Rd,Opp Chinese Gdn,21651 - Opp Chinese Gdn,1.33873,103.72402
21659,Yuan Ching Rd,Chinese Gdn,21659 - Chinese Gdn,1.33896,103.72411
21661,Yuan Ching Rd,Yuan Ching Sec Sch,21661 - Yuan Ching Sec Sch,1.34177,103.72141
21669,Yuan Ching Rd,Opp Blk 134D,21669 - Opp Blk 134D,1.34134,103.7221
21671,Tah Ching Rd,Blk 331,21671 - Blk 331,1.33807,103.72376
21679,Tah Ching Rd,Blk 329,21679 - Blk 329,1.33776,103.72358
21681,Boon Lay Way,Opp Blk 200,21681 - Opp Blk 200,1.34229,103.71466
21689,Boon Lay Way,Blk 200,21689 - Blk 200,1.34242,103.71442
21691,Boon Lay Way,Opp Summerdale,21691 - Opp Summerdale,1.34108,103.71139
21699,Boon Lay Way,Summerdale,21699 - Summerdale,1.34155,103.71203
21711,Corporation Rd,Bet Blks 523/525,21711 - Bet Blks 523/525,1.347,103.71576
21719,Corporation Rd,Opp Blk 529,21719 - Opp Blk 529,1.34779,103.71507
21721,Boon Lay Dr,Blk 239A,21721 - Blk 239A,1.34256,103.71108
21729,Boon Lay Dr,Opposite Blk 239A,21729 - Opposite Blk 239A,1.34238,103.71132
21751,Yuan Ching Rd,Jurong Sec Sch,21751 - Jurong Sec Sch,1.33089,103.7248
21759,Yuan Ching Rd,Opp Jurong Sec Sch,21759 - Opp Jurong Sec Sch,1.33032,103.72491
21761,Yuan Ching Rd,Blk 138B,21761 - Blk 138B,1.32831,103.72477
21769,Yuan Ching Rd,Opp Blk 138B,21769 - Opp Blk 138B,1.32848,103.7249
21771,Yung Ho Rd,Aft Corp Dr,21771 - Aft Corp Dr,1.3266,103.72363
21779,Yung Ho Rd,Aft Yuan Ching Rd,21779 - Aft Yuan Ching Rd,1.32644,103.72426
22009,Jurong West Ctrl 3,Boon Lay Int,22009 - Boon Lay Int,1.33932,103.70546
22011,Jln Ahmad Ibrahim,Bef Jurong Hill,22011 - Bef Jurong Hill,1.3213,103.70776
22019,Jln Ahmad Ibrahim,Aft Tractor Rd,22019 - Aft Tractor Rd,1.32202,103.70711
22021,Jln Ahmad Ibrahim,Givaudan,22021 - Givaudan,1.32168,103.70369
22029,Jln Ahmad Ibrahim,Opp Givaudan,22029 - Opp Givaudan,1.32245,103.70268
22031,Jln Ahmad Ibrahim,Bef Pioneer Circus,22031 - Bef Pioneer Circus,1.32217,103.69855
22039,Jln Ahmad Ibrahim,Markono Holdings,22039 - Markono Holdings,1.32284,103.69862
22041,Jln Buroh,Aft Tg Kling Rd,22041 - Aft Tg Kling Rd,1.31463,103.69873
22049,Jln Buroh,Bef Tg Kling Rd,22049 - Bef Tg Kling Rd,1.31447,103.69789
22051,Jln Buroh,Opp Buroh St,22051 - Opp Buroh St,1.31387,103.70204
22059,Jln Buroh,Aft Buroh St,22059 - Aft Buroh St,1.31361,103.70126
22061,Jln Buroh,CEVA Logistics,22061 - CEVA Logistics,1.31428,103.70464
22069,Jln Buroh,Opp CEVA Logistics,22069 - Opp CEVA Logistics,1.31365,103.70379
22071,Jln Buroh,Bef Jurong Pier Rd,22071 - Bef Jurong Pier Rd,1.31434,103.70695
22079,Jln Buroh,Aft Jurong Pier Rd,22079 - Aft Jurong Pier Rd,1.31394,103.70805
22081,Tg Kling Rd,Opp Natsteel,22081 - Opp Natsteel,1.306,103.70038
22089,Tg Kling Rd,Natsteel,22089 - Natsteel,1.30589,103.70088
22091,Shipyard Rd,Aft Jln Samulun,22091 - Aft Jln Samulun,1.30881,103.69656
22099,Shipyard Rd,Bef Jln Samulun,22099 - Bef Jln Samulun,1.3088,103.69689
22141,Pioneer Rd,Aft Jln Buroh,22141 - Aft Jln Buroh,1.31733,103.69595
22149,Pioneer Rd,Bef Jln Buroh,22149 - Bef Jln Buroh,1.31732,103.69631
22151,Pioneer Rd,Hitachi,22151 - Hitachi,1.32095,103.69627
22159,Pioneer Rd,Opp Hitachi,22159 - Opp Hitachi,1.32095,103.69663
22161,Pioneer Rd Nth,Aft Lok Yang Way,22161 - Aft Lok Yang Way,1.32552,103.69643
22169,Pioneer Rd Nth,Aft Intl Rd,22169 - Aft Intl Rd,1.32625,103.69662
22171,Pioneer Rd Nth,Opp Secura S'pore,22171 - Opp Secura S'pore,1.32954,103.69638
22179,Pioneer Rd Nth,Secura S'Pore,22179 - Secura S'Pore,1.33,103.69666
22181,Pioneer Rd Nth,S'pore Post,22181 - S'pore Post,1.33302,103.69638
22189,Pioneer Rd Nth,Pioneer Junction,22189 - Pioneer Junction,1.3337,103.69666
22191,Soon Lee Rd,Soon Lee Depot,22191 - Soon Lee Depot,1.33131,103.69833
22199,Soon Lee Rd,Opp Soon Lee Depot,22199 - Opp Soon Lee Depot,1.33102,103.69847
22219,Intl Rd,Aft Neythal Rd,22219 - Aft Neythal Rd,1.32765,103.70261
22221,Intl Rd,Aft Pioneer Rd Nth,22221 - Aft Pioneer Rd Nth,1.32791,103.69786
22229,Intl Rd,Bef Pioneer Rd Nth,22229 - Bef Pioneer Rd Nth,1.32764,103.69887
22231,Jurong West St 61,Blk 639,22231 - Blk 639,1.34079,103.69718
22239,Jurong West St 61,Blk 624,22239 - Blk 624,1.34082,103.69742
22241,Jurong West St 62,Opp Blk 622,22241 - Opp Blk 622,1.34012,103.69938
22249,Jurong West St 62,Blk 622,22249 - Blk 622,1.34016,103.69865
22251,Jurong West St 62,Blk 665A,22251 - Blk 665A,1.34073,103.70266
22259,Jurong West St 62,Blk 668D,22259 - Blk 668D,1.34089,103.70255
22271,Soon Lee Rd,Bef Kwong Min Rd,22271 - Bef Kwong Min Rd,1.32925,103.70011
22281,Fan Yoong Rd,Aft Soon Lee Rd,22281 - Aft Soon Lee Rd,1.32849,103.70375
22289,Soon Lee Rd,Bef Fan Yoong Rd,22289 - Bef Fan Yoong Rd,1.32926,103.70284
22299,Kwong Min Rd,Bef Soon Lee Rd,22299 - Bef Soon Lee Rd,1.33069,103.70177
22309,Enterprise Rd,Aft Fan Yoong Rd,22309 - Aft Fan Yoong Rd,1.33327,103.70338
22319,Wan Lee Rd,Bef Enterprise Rd,22319 - Bef Enterprise Rd,1.33198,103.70545
22329,Wan Lee Rd,Opp Sam McCoy Engrg,22329 - Opp Sam McCoy Engrg,1.33024,103.70502
22331,Tg Kling Rd,Tg Kling Rd (End),22331 - Tg Kling Rd (End),1.30486,103.70318
22341,Jurong West Ave 4,Blk 673C,22341 - Blk 673C,1.34492,103.70103
22349,Jurong West Ave 4,Blk 734A CP,22349 - Blk 734A CP,1.34521,103.7008
22351,Jurong West Ave 4,Opp Blk 717,22351 - Opp Blk 717,1.34277,103.69803
22359,Jurong West Ave 4,Blk 717,22359 - Blk 717,1.34253,103.69728
22361,Jurong West Ave 4,Blk 641,22361 - Blk 641,1.34078,103.69587
22369,Jurong West Ave 4,Blk 704,22369 - Blk 704,1.34033,103.69511
22391,Tg Kling Rd,Bef Jln Buroh,22391 - Bef Jln Buroh,1.31343,103.69572
22399,Tg Kling Rd,Aft Jln Buroh,22399 - Aft Jln Buroh,1.31346,103.69602
22401,Tg Kling Rd,Aft Shipyard Rd,22401 - Aft Shipyard Rd,1.31008,103.69715
22409,Tg Kling Rd,Bef Shipyard Rd,22409 - Bef Shipyard Rd,1.31014,103.69742
22411,Jurong West Ave 4,Blk 676B,22411 - Blk 676B,1.34627,103.7038
22419,Jurong West Ave 4,Jurong West Sub-Stn,22419 - Jurong West Sub-Stn,1.34653,103.70364
22421,Tg Kling Rd,Natl Oxygen Pte Ltd,22421 - Natl Oxygen Pte Ltd,1.30776,103.69872
22429,Tg Kling Rd,Opp Natl Oxygen Pte Ltd,22429 - Opp Natl Oxygen Pte Ltd,1.30726,103.69908
22431,Enterprise Rd,Opp Fei Siong Group,22431 - Opp Fei Siong Group,1.33308,103.70742
22439,Enterprise Rd,Aft Fei Siong Group,22439 - Aft Fei Siong Group,1.33311,103.70681
22441,Jurong West St 64,Blk 669 CP,22441 - Blk 669 CP,1.34282,103.70358
22449,Jurong West St 64,Blk 685B,22449 - Blk 685B,1.34306,103.70381
22451,Pioneer Rd Nth,Opp Blk 643,22451 - Opp Blk 643,1.33817,103.69561
22459,Pioneer Rd Nth,Blk 643,22459 - Blk 643,1.33856,103.69572
22461,Pioneer Rd Nth,Opp Blk 653B,22461 - Opp Blk 653B,1.33596,103.6962
22469,Pioneer Rd Nth,Blk 653B,22469 - Blk 653B,1.33649,103.69632
22471,Upp Jurong Rd,Blk 991B,22471 - Blk 991B,1.33509,103.69315
22479,Upp Jurong Rd,Opp Blk 991B,22479 - Opp Blk 991B,1.33474,103.6931
22481,Jurong West Ctrl 1,Blk 691A CP,22481 - Blk 691A CP,1.34246,103.70554
22489,Jurong West Ctrl 1,Blk 683A,22489 - Blk 683A,1.34258,103.70537
22491,Jurong West St 64,Blk 662D,22491 - Blk 662D,1.3367,103.70515
22499,Jurong West St 64,Opp Blk 662C,22499 - Opp Blk 662C,1.33719,103.70481
22501,Jurong West St 63,Blk 662A,22501 - Blk 662A,1.33769,103.70297
22509,Jurong West St 63,Blk 664C,22509 - Blk 664C,1.33799,103.70323
22511,Jurong West St 63,Blk 658C,22511 - Blk 658C,1.33746,103.7003
22519,Jurong West St 63,Blk 608,22519 - Blk 608,1.33773,103.69995
22521,Jurong West St 63,Pioneer Stn Exit A,22521 - Pioneer Stn Exit A,1.33742,103.69777
22529,Jurong West St 63,Pioneer Stn Exit B,22529 - Pioneer Stn Exit B,1.33777,103.69729
22531,Jurong West St 61,Opp Jurong West Pr Sch,22531 - Opp Jurong West Pr Sch,1.33923,103.69814
22539,Jurong West St 61,Jurong West Pr Sch,22539 - Jurong West Pr Sch,1.3392,103.69839
22541,Boon Lay Way,Blk 655,22541 - Blk 655,1.33497,103.69761
22549,Boon Lay Way,Opp Blk 655 CP,22549 - Opp Blk 655 CP,1.33464,103.69795
22551,Boon Lay Way,Blk 657,22551 - Blk 657,1.33498,103.70066
22559,Boon Lay Way,Opp Blk 657 CP,22559 - Opp Blk 657 CP,1.33465,103.70101
22561,Boon Lay Way,Blk 660 Cp,22561 - Blk 660 Cp,1.33497,103.70414
22569,Boon Lay Way,Opp Blk 660 CP,22569 - Opp Blk 660 CP,1.33465,103.70458
22591,Jurong West St 64,Blk 670A,22591 - Blk 670A,1.34476,103.70289
22599,Jurong West St 64,Blk 678D,22599 - Blk 678D,1.34436,103.70345
23011,Jln Ahmad Ibrahim,Carrier Transicold P/L,23011 - Carrier Transicold P/L,1.32241,103.69251
23019,Jln Ahmad Ibrahim,Nippon Paint,23019 - Nippon Paint,1.32302,103.69257
23021,Jln Ahmad Ibrahim,Aft Benoi Sector,23021 - Aft Benoi Sector,1.32244,103.68519
23029,Jln Ahmad Ibrahim,Stamford Tyre,23029 - Stamford Tyre,1.32302,103.68623
23031,Jln Ahmad Ibrahim,Bef Benoi Flyover,23031 - Bef Benoi Flyover,1.3224,103.68099
23039,Jln Ahmad Ibrahim,Aft Benoi Flyover,23039 - Aft Benoi Flyover,1.32303,103.68151
23041,Upp Jurong Rd,Opp Jurong Camp,23041 - Opp Jurong Camp,1.33334,103.69056
23049,Upp Jurong Rd,Jurong Camp,23049 - Jurong Camp,1.33411,103.69061
23051,Upp Jurong Rd,Bef Kian Teck Rd,23051 - Bef Kian Teck Rd,1.33169,103.68928
23059,Upp Jurong Rd,Aft Kian Teck Rd,23059 - Aft Kian Teck Rd,1.33071,103.68814
23061,Upp Jurong Rd,Aft Kian Teck Rd,23061 - Aft Kian Teck Rd,1.32953,103.68652
23069,Upp Jurong Rd,Bef Kian Teck Rd,23069 - Bef Kian Teck Rd,1.3299,103.68582
23071,Upp Jurong Rd,Opp SAFTI Military Inst,23071 - Opp SAFTI Military Inst,1.32977,103.68258
23079,Upp Jurong Rd,SAFTI Military Inst,23079 - SAFTI Military Inst,1.33018,103.68182
23081,Upp Jurong Rd,Opp S'pore Discovery Ctr,23081 - Opp S'pore Discovery Ctr,1.33012,103.67827
23089,Upp Jurong Rd,S'pore Discovery Ctr,23089 - S'pore Discovery Ctr,1.33043,103.67843
23091,Lok Yang Way,Nippon,23091 - Nippon,1.32452,103.69276
23099,Lok Yang Way,Bef First Lok Yang Rd,23099 - Bef First Lok Yang Rd,1.32467,103.69286
23101,Lok Yang Way,Auto World Care,23101 - Auto World Care,1.32453,103.69091
23109,Lok Yang Way,Aft Third Lok Yang Rd,23109 - Aft Third Lok Yang Rd,1.32468,103.69068
23111,Lok Yang Way,Bef Fourth Lok Yang Rd,23111 - Bef Fourth Lok Yang Rd,1.32455,103.68836
23119,Lok Yang Way,Aft Fourth Lok Yang Rd,23119 - Aft Fourth Lok Yang Rd,1.32468,103.68848
23121,Lok Yang Way,Opp Leroy-Somer,23121 - Opp Leroy-Somer,1.32455,103.68565
23129,Lok Yang Way,Leroy-Somer,23129 - Leroy-Somer,1.32468,103.68559
23131,Sixth Lok Yang Rd,MES Logistic Hub,23131 - MES Logistic Hub,1.32537,103.68405
23139,Sixth Lok Yang Rd,Bef Lok Yang Way,23139 - Bef Lok Yang Way,1.32517,103.68415
23141,Sixth Lok Yang Rd,Opp Varco,23141 - Opp Varco,1.32667,103.68402
23149,Sixth Lok Yang Rd,Varco,23149 - Varco,1.32683,103.68416
23151,Intl Rd,Containers Printers,23151 - Containers Printers,1.32788,103.68483
23159,Intl Rd,Aft Fifth Lok Yang Rd,23159 - Aft Fifth Lok Yang Rd,1.32766,103.68563
23161,Intl Rd,Aft Kian Teck Rd,23161 - Aft Kian Teck Rd,1.32788,103.68869
23169,Intl Rd,Bef Kian Teck Rd,23169 - Bef Kian Teck Rd,1.32769,103.68868
23171,Intl Rd,SKK (S) Pte Ltd,23171 - SKK (S) Pte Ltd,1.3279,103.69119
23179,Intl Rd,Aft Second Lok Yang Rd,23179 - Aft Second Lok Yang Rd,1.32767,103.69102
23181,Intl Rd,Aft Kian Teck Rd,23181 - Aft Kian Teck Rd,1.3279,103.69449
23189,Intl Rd,Bef First Lok Yang Rd,23189 - Bef First Lok Yang Rd,1.32764,103.69398
23191,Benoi Sector,SK Tes,23191 - SK Tes,1.31966,103.68363
23199,Benoi Sector,Opp SK Tes,23199 - Opp SK Tes,1.31951,103.68312
23201,Benoi Sector,Pall Corporation,23201 - Pall Corporation,1.31965,103.68629
23209,Benoi Sector,NS BlueScope Lysaght,23209 - NS BlueScope Lysaght,1.3195,103.68578
23211,Benoi Sector,Mapletree Logistics Hub,23211 - Mapletree Logistics Hub,1.31792,103.6892
23219,Benoi Sector,Opp Mapletree Log Hub,23219 - Opp Mapletree Log Hub,1.31833,103.68853
23221,Pioneer Rd,Aft Gul Way,23221 - Aft Gul Way,1.30897,103.67178
23229,Pioneer Rd,Opp Gul Way,23229 - Opp Gul Way,1.30869,103.67181
23231,Pioneer Rd,Keppel Logistics,23231 - Keppel Logistics,1.30926,103.67492
23239,Pioneer Rd,Opp Keppel Logistics,23239 - Opp Keppel Logistics,1.30915,103.67519
23241,Pioneer Rd,Aft Benoi Rd,23241 - Aft Benoi Rd,1.31025,103.67981
23249,Pioneer Rd,Bef Benoi Rd,23249 - Bef Benoi Rd,1.3099,103.67949
23251,Pioneer Rd,Aft Shipyard Rd,23251 - Aft Shipyard Rd,1.31172,103.68378
23259,Pioneer Rd,Bef Shipyard Rd,23259 - Bef Shipyard Rd,1.3114,103.68366
23261,Pioneer Rd,Opp Exxon Mobil,23261 - Opp Exxon Mobil,1.31265,103.68577
23269,Pioneer Rd,Exxon Mobil,23269 - Exxon Mobil,1.31241,103.68578
23279,Pioneer Rd,Bef Benoi Sector,23279 - Bef Benoi Sector,1.31493,103.69163
23281,Benoi Rd,Aft Pioneer Rd,23281 - Aft Pioneer Rd,1.30651,103.67897
23291,Benoi Rd,ST Marine,23291 - ST Marine,1.30382,103.6793
23301,Benoi Rd,Bef Benoi Basin,23301 - Bef Benoi Basin,1.30212,103.67954
23311,Benoi Rd,Seatrium Benoi Yard,23311 - Seatrium Benoi Yard,1.30179,103.67746
23321,Benoi Rd,Bef Benoi Lane,23321 - Bef Benoi Lane,1.30404,103.67618
23331,Benoi Rd,Opp JP Nelson,23331 - Opp JP Nelson,1.30689,103.67584
23341,Benoi Rd,Aft Pioneer Rd,23341 - Aft Pioneer Rd,1.31118,103.67851
23349,Benoi Rd,Bef Pioneer Rd,23349 - Bef Pioneer Rd,1.31077,103.67872
23351,Benoi Rd,Aft Gul Ave,23351 - Aft Gul Ave,1.31615,103.67875
23359,Benoi Rd,Opp Gul Ave,23359 - Opp Gul Ave,1.31501,103.67888
23361,Benoi Rd,Bef Benoi Sector,23361 - Bef Benoi Sector,1.31911,103.67884
23369,Benoi Rd,Aft Benoi Sector,23369 - Aft Benoi Sector,1.31908,103.67911
23371,Benoi Rd,Bef Joo Koon Int,23371 - Bef Joo Koon Int,1.32595,103.67908
23379,Benoi Rd,Opp Joo Koon Int,23379 - Opp Joo Koon Int,1.32654,103.67939
23389,Shipyard Rd,PEC Ltd,23389 - PEC Ltd,1.30756,103.69377
23399,Shipyard Rd,Keppel Offshore & Marine,23399 - Keppel Offshore & Marine,1.30534,103.69237
23409,Shipyard Rd,Mobil Marine Ter,23409 - Mobil Marine Ter,1.30352,103.68934
23419,Shipyard Rd,Bef Shipyard Cres,23419 - Bef Shipyard Cres,1.30381,103.68615
23429,Shipyard Rd,Opp Mooreast,23429 - Opp Mooreast,1.30457,103.68472
23439,Shipyard Rd,Opp LP 71,23439 - Opp LP 71,1.30774,103.68469
23441,Benoi Rd,Bef Benoi Pl,23441 - Bef Benoi Pl,1.31304,103.67863
23449,Benoi Rd,Aft Benoi Pl,23449 - Aft Benoi Pl,1.31284,103.67878
23451,Jln Samulun,Opp Chemical Industries,23451 - Opp Chemical Industries,1.30403,103.69728
23461,Jln Samulun,Tanoto Shipyard,23461 - Tanoto Shipyard,1.30547,103.69643
23469,Jln Samulun,Opp Tanoto Shipyard,23469 - Opp Tanoto Shipyard,1.30509,103.69683
23471,Benoi Sector,Aft Benoi Rd,23471 - Aft Benoi Rd,1.31966,103.68097
23479,Benoi Sector,Bef Benoi Rd,23479 - Bef Benoi Rd,1.31951,103.68066
23481,Intl Rd,Molex,23481 - Molex,1.32792,103.68175
23489,Intl Rd,Opp Molex,23489 - Opp Molex,1.3276,103.68049
23491,Joo Koon Circle,Joo Koon Stn Exit B,23491 - Joo Koon Stn Exit B,1.32792,103.67781
23499,Joo Koon Circle,Joo Koon Stn Exit A,23499 - Joo Koon Stn Exit A,1.32755,103.67805
23501,Lok Yang Way,Aft Pioneer Rd Nth,23501 - Aft Pioneer Rd Nth,1.32453,103.69584
23509,Lok Yang Way,Hoe Keng Motor,23509 - Hoe Keng Motor,1.32468,103.69562
23519,Benoi Rd,Opp FairPrice Hub,23519 - Opp FairPrice Hub,1.32479,103.67937
24009,Joo Koon Circle,Joo Koon Int,24009 - Joo Koon Int,1.32697,103.6784
24011,Jln Ahmad Ibrahim,M.C. Packaging Pte Ltd,24011 - M.C. Packaging Pte Ltd,1.32231,103.67763
24019,Jln Ahmad Ibrahim,Liang Huat Ind Cplx,24019 - Liang Huat Ind Cplx,1.32289,103.67728
24021,Jln Ahmad Ibrahim,Meritor Heavy Veh Systems,24021 - Meritor Heavy Veh Systems,1.32185,103.67088
24029,Jln Ahmad Ibrahim,Mazak S'pore,24029 - Mazak S'pore,1.32247,103.67133
24041,Upp Jurong Rd,Opp Pasir Laba Camp,24041 - Opp Pasir Laba Camp,1.33035,103.67499
24049,Upp Jurong Rd,Pasir Laba Camp,24049 - Pasir Laba Camp,1.33094,103.67379
24089,Gul Way,Aft Gul Ave,24089 - Aft Gul Ave,1.31446,103.67069
24129,Joo Koon Way,Opp Yeow San Pte Ltd,24129 - Opp Yeow San Pte Ltd,1.32614,103.66987
24139,Joo Koon Circle,Opp Toyo Ink,24139 - Opp Toyo Ink,1.32734,103.67193
24149,Joo Koon Circle,Aft Joo Koon Cres,24149 - Aft Joo Koon Cres,1.32754,103.67466
24159,Joo Koon Circle,Aft Joo Koon Rd,24159 - Aft Joo Koon Rd,1.32684,103.67664
24169,Gul Cres,Bef Gul Circle,24169 - Bef Gul Circle,1.31039,103.66672
24179,Gul Cres,Bef Gul Lane,24179 - Bef Gul Lane,1.3094,103.66477
24189,Gul Cres,Tai Sin Electric Cables,24189 - Tai Sin Electric Cables,1.31116,103.66194
24199,Gul Cres,JB Ind Pte Ltd,24199 - JB Ind Pte Ltd,1.31308,103.65994
24209,Gul Cres,Aft Gul Lane,24209 - Aft Gul Lane,1.31524,103.65987
24219,Gul Circle,Precision Products,24219 - Precision Products,1.31823,103.66267
24229,Gul Circle,Aft Gul St 3,24229 - Aft Gul St 3,1.31954,103.66615
24239,Gul Circle,Bef Gul St 1,24239 - Bef Gul St 1,1.31979,103.669
24249,Gul Circle,Asiatic Agricultural Ind,24249 - Asiatic Agricultural Ind,1.32001,103.67231
24259,Gul Circle,DNV GL Laboratory,24259 - DNV GL Laboratory,1.32022,103.67563
24269,Gul Circle,Sing Huat Hardware,24269 - Sing Huat Hardware,1.31796,103.67661
24279,Gul Circle,Cameron Iron Works,24279 - Cameron Iron Works,1.3148,103.67675
24289,Gul Circle,Opp Keppel T&T,24289 - Opp Keppel T&T,1.3124,103.67486
24299,Gul Circle,Aft Gul Way,24299 - Aft Gul Way,1.31216,103.67165
24301,Gul Circle,SNL Logistics Pte Ltd,24301 - SNL Logistics Pte Ltd,1.31261,103.66585
24331,Pioneer Rd,Opp Hong Hang Bldg,24331 - Opp Hong Hang Bldg,1.30855,103.66868
24339,Pioneer Rd,Hong Hang Bldg,24339 - Hong Hang Bldg,1.30841,103.66899
24341,Gul Rd,Seatrium Pioneer Yard,24341 - Seatrium Pioneer Yard,1.2956,103.6707
24349,Gul Rd,ST Engrg Gul Yard,24349 - ST Engrg Gul Yard,1.29558,103.67092
24351,Gul Rd,Opp S'pore Takada Ind,24351 - Opp S'pore Takada Ind,1.29812,103.66839
24359,Gul Rd,S'pore Takada Ind,24359 - S'pore Takada Ind,1.29823,103.66853
24369,Gul Rd,Dyna-Mac Engrg Svcs,24369 - Dyna-Mac Engrg Svcs,1.30078,103.66698
24379,Gul Rd,Opp Asia Ind Gases,24379 - Opp Asia Ind Gases,1.30366,103.66588
24381,Gul Rd,GE Keppel Energy Svcs,24381 - GE Keppel Energy Svcs,1.30689,103.66533
24389,Gul Rd,Opp GE Keppel Energy Svcs,24389 - Opp GE Keppel Energy Svcs,1.30668,103.66552
24391,Pioneer Sector 2,Chem-Solv Technologies,24391 - Chem-Solv Technologies,1.29859,103.66447
24401,Pioneer Sector 2,Opp Hoe Huat Engrg,24401 - Opp Hoe Huat Engrg,1.30032,103.66356
24411,Pioneer Sector 2,Opp Multi Ways Equipment,24411 - Opp Multi Ways Equipment,1.30244,103.66173
24421,Pioneer Sector 2,Bef Pioneer Sector 1,24421 - Bef Pioneer Sector 1,1.30463,103.65951
24431,Pioneer Sector 1,Aft Pioneer Sector 2,24431 - Aft Pioneer Sector 2,1.30727,103.6577
24441,Pioneer Sector 3,GSK,24441 - GSK,1.30713,103.66097
24451,Pioneer Sector 3,Opp Cambridge Ind Trust,24451 - Opp Cambridge Ind Trust,1.30599,103.66379
24461,Pioneer Sector Lane,Bef Nam Leong Co Pte Ltd,24461 - Bef Nam Leong Co Pte Ltd,1.29724,103.66626
24489,Joo Koon Rd,Aft Joo Koon Way,24489 - Aft Joo Koon Way,1.32574,103.67111
24499,Joo Koon Rd,Panasonic Ind Devices,24499 - Panasonic Ind Devices,1.32599,103.6744
24501,PIE,Bef Tuas Flyover,24501 - Bef Tuas Flyover,1.32425,103.6648
24509,PIE,Aft Tuas Flyover,24509 - Aft Tuas Flyover,1.32431,103.66412
24511,Tuas Rd,Gul Circle Stn Exit A,24511 - Gul Circle Stn Exit A,1.31945,103.66089
24519,Tuas Rd,Gul Circle Stn Exit B,24519 - Gul Circle Stn Exit B,1.31907,103.65981
24521,Tuas Rd,Bef Tuas Ave 5,24521 - Bef Tuas Ave 5,1.31744,103.65888
24529,Tuas Rd,Aft Tuas Ave 5,24529 - Aft Tuas Ave 5,1.31721,103.65817
24531,Pioneer Sector 1,Utracon Corp,24531 - Utracon Corp,1.30623,103.65688
24539,Pioneer Sector 1,Dundee Marine,24539 - Dundee Marine,1.30492,103.65548
24541,Pioneer Sector 1,Opp Seatrium Tuas Yard,24541 - Opp Seatrium Tuas Yard,1.30276,103.65566
24549,Pioneer Sector 1,Seatrium Tuas Yard,24549 - Seatrium Tuas Yard,1.30274,103.65544
24559,Pioneer Sector 1,Opp Crystal Offshore,24559 - Opp Crystal Offshore,1.30079,103.65748
24571,Joo Koon Circle,Seng Heng Engrg,24571 - Seng Heng Engrg,1.32368,103.66907
24581,Joo Koon Circle,Opp ESAB,24581 - Opp ESAB,1.32496,103.667
24599,Joo Koon Rd,Bef Joo Koon Way,24599 - Bef Joo Koon Way,1.32562,103.66927
24601,Tuas Rd,Progress Galvanizing,24601 - Progress Galvanizing,1.31334,103.65487
24609,Tuas Rd,Opp Progress Galvanizing,24609 - Opp Progress Galvanizing,1.31343,103.65475
24611,Tuas Rd,Bef Marinteknik,24611 - Bef Marinteknik,1.31086,103.65254
24619,Tuas Rd,Opp Marinteknik,24619 - Opp Marinteknik,1.31114,103.6526
24621,Tuas Rd,Aft Ocean Tanker,24621 - Aft Ocean Tanker,1.30797,103.64978
24629,Tuas Rd,Opp Ocean Tanker,24629 - Opp Ocean Tanker,1.30851,103.65016
24631,Gul Circle,Bef Benoi Rd,24631 - Bef Benoi Rd,1.32057,103.67824
24639,Gul Circle,Aft Benoi Rd,24639 - Aft Benoi Rd,1.32041,103.67792
24641,Gul Ave,W Atelier,24641 - W Atelier,1.31424,103.66551
24651,Gul Ave,Metall-Treat Ind,24651 - Metall-Treat Ind,1.3149,103.66883
24671,Pioneer Rd,Hiap Teck Metal Co,24671 - Hiap Teck Metal Co,1.30958,103.66123
24679,Pioneer Rd,Opp Hiap Teck Metal Co,24679 - Opp Hiap Teck Metal Co,1.30929,103.66125
24681,Pioneer Rd,Opp Jurong Insp Ctr,24681 - Opp Jurong Insp Ctr,1.31201,103.65863
24689,Pioneer Rd,Jurong Insp Ctr,24689 - Jurong Insp Ctr,1.31152,103.6589
24691,Pioneer Rd,Aft Tuas Rd,24691 - Aft Tuas Rd,1.31345,103.65713
24699,Pioneer Rd,Bef Tuas Rd,24699 - Bef Tuas Rd,1.31345,103.6569
24701,Pioneer Rd,Tuas Cres Stn Exit B,24701 - Tuas Cres Stn Exit B,1.32139,103.64912
24709,Pioneer Rd,Tuas Cres Stn Exit A,24709 - Tuas Cres Stn Exit A,1.32089,103.64903
24711,Pioneer Rd,Tuas West Rd Stn Exit B,24711 - Tuas West Rd Stn Exit B,1.32987,103.63999
24719,Pioneer Rd,Tuas West Rd Stn Exit A,24719 - Tuas West Rd Stn Exit A,1.33005,103.63933
25009,Tuas West Dr,Tuas Ter,25009 - Tuas Ter,1.345,103.6392
25059,Tuas Sth Way,Aft Tuas Sth Blvd,25059 - Aft Tuas Sth Blvd,1.27001,103.61725
25061,Tuas Ave 9,Kyocera Chemical,25061 - Kyocera Chemical,1.32759,103.64529
25069,Tuas Ave 9,Opp Kyocera Chemical,25069 - Opp Kyocera Chemical,1.32751,103.64552
25071,Tuas Ave 9,Opp Nissin Trspt,25071 - Opp Nissin Trspt,1.32958,103.64321
25079,Tuas Ave 9,Nissin Trspt,25079 - Nissin Trspt,1.32945,103.64347
25091,Tuas Ave 12,Aft Tuas Ave 7,25091 - Aft Tuas Ave 7,1.33443,103.6452
25099,Tuas Ave 12,Opto-Pharm,25099 - Opto-Pharm,1.33393,103.64495
25101,Tuas Ave 1,Opp SMC Mfg,25101 - Opp SMC Mfg,1.33428,103.64784
25109,Tuas Ave 1,SMC Mfg,25109 - SMC Mfg,1.33462,103.64732
25111,Tuas Ave 1,Aft Tuas Ave 10,25111 - Aft Tuas Ave 10,1.3324,103.64982
25119,Tuas Ave 1,Bef Tuas Ave 10,25119 - Bef Tuas Ave 10,1.33213,103.64992
25121,Tuas Ave 1,Aft Tuas Ave 8,25121 - Aft Tuas Ave 8,1.33061,103.6517
25129,Tuas Ave 1,Aft Tuas Ave 6,25129 - Aft Tuas Ave 6,1.32994,103.65226
25151,Tuas Ave 1,Mercedes-Benz Logistics,25151 - Mercedes-Benz Logistics,1.32914,103.65326
25161,Tuas Ave 1,Toyochem Ink,25161 - Toyochem Ink,1.32735,103.65511
25169,Tuas Ave 1,Opp Galmon S'pore,25169 - Opp Galmon S'pore,1.32775,103.6545
25171,Tuas Ave 1,Becton Dickinson Med,25171 - Becton Dickinson Med,1.32547,103.65711
25179,Tuas Ave 1,Sew-Eurodrive,25179 - Sew-Eurodrive,1.32529,103.65711
25181,Tuas Ave 1,Bef Tuas Dr 1,25181 - Bef Tuas Dr 1,1.32385,103.65881
25189,Tuas Ave 1,Soon Heng Glass,25189 - Soon Heng Glass,1.32384,103.65862
25191,Tuas Ave 1,Asiatic Engrg,25191 - Asiatic Engrg,1.3213,103.65968
25199,Tuas Ave 1,Rockwool Building Materials,25199 - Rockwool Building Materials,1.32109,103.65933
25201,Tuas Ave 3,Aft Tuas Rd,25201 - Aft Tuas Rd,1.31926,103.65871
25209,Tuas Ave 3,Bef Tuas Rd,25209 - Bef Tuas Rd,1.31931,103.65881
25219,Jln Ahmad Ibrahim,Aft Tuas Ave 2,25219 - Aft Tuas Ave 2,1.32877,103.65692
25221,Jln Ahmad Ibrahim,Raffles Country Club,25221 - Raffles Country Club,1.33471,103.65153
25229,Jln Ahmad Ibrahim,Crown Beverage Cans S'pore,25229 - Crown Beverage Cans S'pore,1.33371,103.65176
25231,Jln Ahmad Ibrahim,Opp Asia-Pacific Brewery,25231 - Opp Asia-Pacific Brewery,1.33866,103.6474
25239,Jln Ahmad Ibrahim,Asia-Pacific Brewery,25239 - Asia-Pacific Brewery,1.33741,103.64795
25249,Jln Ahmad Ibrahim,Aft Tuas West Rd,25249 - Aft Tuas West Rd,1.33985,103.64535
25251,Jln Ahmad Ibrahim,S'pore Rail Test Ctr,25251 - S'pore Rail Test Ctr,1.34528,103.64018
25259,Jln Ahmad Ibrahim,Bef Tuas West Dr,25259 - Bef Tuas West Dr,1.34419,103.64071
25269,Jln Ahmad Ibrahim,Tuas Checkpt,25269 - Tuas Checkpt,1.34777,103.63747
25321,Tuas Ave 5,YCH Distripk,25321 - YCH Distripk,1.31765,103.65645
25329,Tuas Ave 5,Mapletree Logistics,25329 - Mapletree Logistics,1.31779,103.65646
25331,Tuas Ave 5,Chugoku Marine Paints,25331 - Chugoku Marine Paints,1.3202,103.65381
25339,Tuas Ave 5,Opp Chugoku Marine Paints,25339 - Opp Chugoku Marine Paints,1.32018,103.65397
25341,Tuas Ave 5,Bef Tuas Ave 2,25341 - Bef Tuas Ave 2,1.32194,103.65199
25349,Tuas Ave 5,Times Printers,25349 - Times Printers,1.32159,103.65248
25351,Tuas Ave 2,Hart Engrg Pte Ltd,25351 - Hart Engrg Pte Ltd,1.32397,103.65303
25359,Tuas Ave 2,Opp Hart Engrg Pte Ltd,25359 - Opp Hart Engrg Pte Ltd,1.32365,103.65292
25361,Tuas Ave 4,Yan San Metals Pte Ltd,25361 - Yan San Metals Pte Ltd,1.32496,103.65112
25369,Tuas Ave 4,Opp Yan San Metals,25369 - Opp Yan San Metals,1.32514,103.65147
25371,Tuas Ave 9,Aft Tuas Ave 4,25371 - Aft Tuas Ave 4,1.32388,103.64917
25379,Tuas Ave 9,Aft Tuas Ave 6,25379 - Aft Tuas Ave 6,1.32422,103.649
25381,Tuas Ave 9,WYN2000 Logistics Ctr,25381 - WYN2000 Logistics Ctr,1.32556,103.6474
25389,Tuas Ave 9,Aft Tuas Ave 8,25389 - Aft Tuas Ave 8,1.32596,103.64721
25391,Tuas West Rd,Bef Pioneer Rd,25391 - Bef Pioneer Rd,1.32897,103.63704
25399,Tuas West Rd,Aft Pioneer Rd,25399 - Aft Pioneer Rd,1.32924,103.63794
25411,Tuas West Dr,Bef Tuas Ter,25411 - Bef Tuas Ter,1.34387,103.63831
25419,Tuas West Dr,Aft Tuas Ter,25419 - Aft Tuas Ter,1.34439,103.63838
25421,Tuas West Dr,Opp Tuas Lk Stn,25421 - Opp Tuas Lk Stn,1.34126,103.63742
25429,Tuas West Dr,Tuas Lk Stn,25429 - Tuas Lk Stn,1.34056,103.63697
25431,Tuas West Dr,Super Continental,25431 - Super Continental,1.33898,103.63659
25439,Tuas West Dr,Opp Super Continental,25439 - Opp Super Continental,1.33913,103.63643
25441,Tuas West Dr,Bef Pioneer Rd,25441 - Bef Pioneer Rd,1.33483,103.63512
25449,Tuas West Dr,Aft Pioneer Rd,25449 - Aft Pioneer Rd,1.33559,103.63489
25451,Tuas West Dr,Aft Tuas West St,25451 - Aft Tuas West St,1.33226,103.63405
25459,Tuas West Dr,Opp Tuas West St,25459 - Opp Tuas West St,1.3328,103.63412
25461,Tuas West Dr,Aft Tuas West Ave,25461 - Aft Tuas West Ave,1.32945,103.63292
25469,Tuas West Dr,Bef Tuas West Ave,25469 - Bef Tuas West Ave,1.32929,103.63265
25471,Tuas Link 4,Opp S'pore Epson Ind,25471 - Opp S'pore Epson Ind,1.33552,103.64184
25479,Tuas Link 4,S'pore Epson Ind,25479 - S'pore Epson Ind,1.33553,103.64163
25491,Tuas Link 4,Opp Super Continental,25491 - Opp Super Continental,1.33901,103.63817
25499,Tuas Link 4,Super Continental,25499 - Super Continental,1.33875,103.63824
25501,Tuas Ave 7,Kee Wee Hup Kee,25501 - Kee Wee Hup Kee,1.33379,103.64364
25509,Tuas Ave 7,Opp Kee Wee Hup Kee,25509 - Opp Kee Wee Hup Kee,1.33356,103.64365
25511,Tuas Ave 12,Michelman,25511 - Michelman,1.32982,103.6408
25519,Tuas Ave 12,Opp Michelman,25519 - Opp Michelman,1.32981,103.641
25531,Tuas Ave 7,ST Kinetics,25531 - ST Kinetics,1.33235,103.64516
25539,Tuas Ave 7,Fujifilm,25539 - Fujifilm,1.33231,103.64507
25541,Tuas Ave 7,PEC,25541 - PEC,1.32978,103.64785
25549,Tuas Ave 7,CAST Laboratories,25549 - CAST Laboratories,1.32982,103.64769
25551,Tuas Ave 8,GARMCO,25551 - GARMCO,1.32552,103.64593
25559,Tuas Ave 8,Lee Welded Mesh,25559 - Lee Welded Mesh,1.32565,103.64588
25561,Tuas Sth Ave 5,Aft Tuas Cres,25561 - Aft Tuas Cres,1.31836,103.63771
25569,Tuas Sth Ave 5,Bef Tuas Cres,25569 - Bef Tuas Cres,1.31819,103.63725
25571,Tuas Sth Ave 5,Opp West Star,25571 - Opp West Star,1.31544,103.63524
25579,Tuas Sth Ave 5,West Star,25579 - West Star,1.31554,103.63495
25589,Tuas Ave 8,Crown Equipment,25589 - Crown Equipment,1.32833,103.64843
25591,Tuas Sth Ave 4,Opp Wyeth Pharmaceuticals,25591 - Opp Wyeth Pharmaceuticals,1.31025,103.63509
25599,Tuas Sth Ave 4,Wyeth Pharmaceuticals,25599 - Wyeth Pharmaceuticals,1.30943,103.63581
25601,Tuas Sth Ave 7,Pfizer Global,25601 - Pfizer Global,1.30163,103.63472
25609,Tuas Sth Ave 7,Merck Sharp & Dohme,25609 - Merck Sharp & Dohme,1.30194,103.63452
25611,Tuas Sth Ave 7,Opp WestLink Two,25611 - Opp WestLink Two,1.2977,103.63303
25621,Tuas Sth Ave 7,Starburst Engrg,25621 - Starburst Engrg,1.29438,103.63189
25631,Tuas Sth Ave 7,Container Connections,25631 - Container Connections,1.29033,103.6314
25641,Tuas Sth Ave 9,Opp Roche S'pore Tech,25641 - Opp Roche S'pore Tech,1.29616,103.63843
25651,Tuas Sth Ave 6,Novartis,25651 - Novartis,1.29935,103.63553
25661,Tuas Sth Ave 8,Bef Tuas Bay Lk,25661 - Bef Tuas Bay Lk,1.29336,103.63993
25669,Tuas Sth Ave 8,Aft Tuas Bay Lk,25669 - Aft Tuas Bay Lk,1.2934,103.63952
25671,Tuas Bay Link,Bef Offshore Marine Ctr,25671 - Bef Offshore Marine Ctr,1.29455,103.64161
25681,Pioneer Rd,Bef Tuas West Ave,25681 - Bef Tuas West Ave,1.33249,103.63717
25689,Pioneer Rd,Aft Tuas West Ave,25689 - Aft Tuas West Ave,1.33211,103.63713
25691,Tuas Ave 20,Aft Tuas West Rd Stn,25691 - Aft Tuas West Rd Stn,1.32852,103.63967
25701,Tuas Sth Ave 5,GlaxoSmithKline,25701 - GlaxoSmithKline,1.29559,103.62765
25709,Tuas Sth Ave 5,Edgen Murray,25709 - Edgen Murray,1.29567,103.62728
25711,Tuas Sth Ave 5,Opp The Index,25711 - Opp The Index,1.28863,103.62507
25719,Tuas Sth Ave 5,The Index,25719 - The Index,1.28901,103.62489
25729,Tuas Sth Ave 10,Abbott,25729 - Abbott,1.28493,103.62826
25741,Tuas Sth Ave 12,Halliburton,25741 - Halliburton,1.2805,103.62711
25751,Tuas Sth Ave 5,Bef Tuas Sth Ave 14,25751 - Bef Tuas Sth Ave 14,1.27806,103.62166
25761,Tuas Sth Ave 14,Opp REC S'pore,25761 - Opp REC S'pore,1.27506,103.62422
25771,Tuas Sth Ave 14,Aft Tuas Sth St 7,25771 - Aft Tuas Sth St 7,1.27433,103.63233
25781,Tuas Sth Ave 9,Opp SLS,25781 - Opp SLS,1.2764,103.63581
25791,Tuas Sth Ave 9,Bef Tuas Sth Ave 10,25791 - Bef Tuas Sth Ave 10,1.28202,103.63613
25801,Tuas Sth Ave 10,Bef Tuas Sth Ave 7,25801 - Bef Tuas Sth Ave 7,1.28451,103.63419
25811,Tuas Ave 12,Bef Tuas Ave 7,25811 - Bef Tuas Ave 7,1.33226,103.6432
25819,Tuas Ave 12,Aft Tuas Ave 7,25819 - Aft Tuas Ave 7,1.3325,103.64353
25821,Pioneer Rd,Tuas Amenity Ctr,25821 - Tuas Amenity Ctr,1.31749,103.65259
26011,Tuas Cres,Bef Tuas Ave 11,26011 - Bef Tuas Ave 11,1.31923,103.64877
26019,Tuas Cres,Progress Galvanizing,26019 - Progress Galvanizing,1.31861,103.64806
26021,Tuas Cres,Bef Tuas Ave 13,26021 - Bef Tuas Ave 13,1.31726,103.64693
26029,Tuas Cres,Chia Hock Trading Co,26029 - Chia Hock Trading Co,1.31781,103.64726
26031,Tuas Cres,Hiap Seng Engrg Ltd,26031 - Hiap Seng Engrg Ltd,1.31548,103.64525
26039,Tuas Cres,Asia Polyurethane,26039 - Asia Polyurethane,1.31606,103.64562
26041,Tuas Cres,Hiap Seng Engrg Ltd,26041 - Hiap Seng Engrg Ltd,1.31471,103.64305
26049,Tuas Cres,Damen Shipyard,26049 - Damen Shipyard,1.31487,103.64275
26051,Tuas Cres,Blasting Abrasives,26051 - Blasting Abrasives,1.31639,103.6413
26059,Tuas Cres,PaxOcean,26059 - PaxOcean,1.31673,103.64084
26061,Tuas Cres,BS Development,26061 - BS Development,1.31819,103.63941
26069,Tuas Cres,Aft Tuas Ave 16,26069 - Aft Tuas Ave 16,1.3185,103.63898
26071,Tuas Cres,Unifine Star Petrochem,26071 - Unifine Star Petrochem,1.32051,103.63702
26079,Tuas Cres,Bef Tuas Loop,26079 - Bef Tuas Loop,1.32061,103.63676
26081,Tuas Cres,Bef Tuas Ave 18A,26081 - Bef Tuas Ave 18A,1.32249,103.63491
26089,Tuas Cres,Bef Tuas Ave 20,26089 - Bef Tuas Ave 20,1.32215,103.6351
26091,Tuas Ave 20,Rotary Engrg,26091 - Rotary Engrg,1.32466,103.63614
26099,Tuas Ave 20,Bef Tuas Ave 13,26099 - Bef Tuas Ave 13,1.32464,103.636
26101,Tuas Ave 20,BASF Sth East Asia,26101 - BASF Sth East Asia,1.32687,103.63814
26109,Tuas Ave 20,Bef Tuas Ave 11,26109 - Bef Tuas Ave 11,1.32728,103.63849
26111,Tuas Basin Link,Tru-Marine,26111 - Tru-Marine,1.31464,103.65426
26121,Tuas Basin Link,Bef Tuas Amenity Ctr,26121 - Bef Tuas Amenity Ctr,1.31737,103.65136
26131,Tuas Basin Link,Aft Tuas Cres,26131 - Aft Tuas Cres,1.31902,103.6497
26141,Tuas Ave 11,Mectron Engrg,26141 - Mectron Engrg,1.32669,103.64026
26151,Tuas Ave 11,Tuas Lot,26151 - Tuas Lot,1.32453,103.64252
26161,Tuas Ave 11,3NC S'pore,26161 - 3NC S'pore,1.32238,103.6448
26171,Tuas Ave 11,Richee Engrg,26171 - Richee Engrg,1.32013,103.64712
26201,Tuas West Dr,Opp MSD,26201 - Opp MSD,1.32695,103.63193
26209,Tuas West Dr,MSD,26209 - MSD,1.32692,103.63175
26211,Tuas Sth Ave 9,Framo S'pore Pte Ltd,26211 - Framo S'pore Pte Ltd,1.29097,103.63684
26221,Tuas Sth Ave 9,Opp YLS Steel,26221 - Opp YLS Steel,1.29325,103.637
26241,Tuas Sth Ave 3,Aft Tuas Sth Ave 2,26241 - Aft Tuas Sth Ave 2,1.32051,103.63085
26249,Tuas Sth Ave 3,Bef Tuas Sth Ave 2,26249 - Bef Tuas Sth Ave 2,1.32047,103.63122
26251,Tuas Sth Ave 3,Bef Tuas Sth Ave 2,26251 - Bef Tuas Sth Ave 2,1.31727,103.62979
26259,Tuas Sth Ave 3,Aft Tuas Sth Ave 2,26259 - Aft Tuas Sth Ave 2,1.31752,103.63011
26261,Tuas Sth Ave 3,Aft Tuas Sth Ave 4,26261 - Aft Tuas Sth Ave 4,1.31442,103.62871
26269,Tuas Sth Ave 3,Bef Tuas Sth Ave 4,26269 - Bef Tuas Sth Ave 4,1.31436,103.62896
26279,Tuas Sth Ave 3,Aft Tuas Sth Ave 4,26279 - Aft Tuas Sth Ave 4,1.31133,103.62784
26289,Tuas Sth Ave 3,Aft Tuas Sth St 2,26289 - Aft Tuas Sth St 2,1.30855,103.62682
26299,Tuas Sth Ave 3,Bef Tuas Sth Ave 6,26299 - Bef Tuas Sth Ave 6,1.30511,103.62556
26311,Tuas Sth Ave 5,Aft Tuas Sth Ave 6,26311 - Aft Tuas Sth Ave 6,1.30229,103.62978
26321,Tuas Sth Ave 5,Bef Tuas Sth St 2,26321 - Bef Tuas Sth St 2,1.30604,103.63117
26331,Tuas Sth Ave 5,Aft Tuas Sth St 2,26331 - Aft Tuas Sth St 2,1.3087,103.63213
26349,Tuas Sth Ave 4,Tuas Technology Pk,26349 - Tuas Technology Pk,1.31161,103.63096
26369,Tuas Sth Ave 3,See Hup Seng,26369 - See Hup Seng,1.29847,103.62309
26379,Tuas Sth Ave 3,Yong Nam,26379 - Yong Nam,1.29387,103.62192
26389,Tuas Sth Ave 3,Bef Tuas Sth Ave 5,26389 - Bef Tuas Sth Ave 5,1.29055,103.62453
26399,Tuas Sth Ave 3,Aft Tuas View Cres,26399 - Aft Tuas View Cres,1.28949,103.62746
26409,Tuas Sth Ave 3,Multico,26409 - Multico,1.28913,103.6302
26419,Tuas Sth Ave 3,Aft Tuas View Circuit,26419 - Aft Tuas View Circuit,1.28892,103.63302
26429,Tuas Sth Ave 3,Bef Tuas Sth Ave 9,26429 - Bef Tuas Sth Ave 9,1.2887,103.63587
26431,Tuas Sth Ave 8,Aft Tuas Sth Ave 9,26431 - Aft Tuas Sth Ave 9,1.29448,103.63619
26441,Tuas Sth Ave 8,Bef Tuas Sth Ave 7,26441 - Bef Tuas Sth Ave 7,1.29569,103.63297
26451,Tuas Sth Ave 8,Bef Tuas Sth Ave 5,26451 - Bef Tuas Sth Ave 5,1.2969,103.62978
26461,Tuas Sth Ave 5,Aft Tuas Sth Ave 8,26461 - Aft Tuas Sth Ave 8,1.29946,103.62877
27011,Nanyang Cres,Hall 11 Blk 55,27011 - Hall 11 Blk 55,1.35586,103.68611
27021,Nanyang Cres,Hall 15,27021 - Hall 15,1.35324,103.68193
27031,Nanyang Cres,Hall 12,27031 - Hall 12,1.35187,103.68052
27041,Nanyang Cres,NIE CP 7,27041 - NIE CP 7,1.35072,103.67864
27051,Nanyang Cres,NIE Lib,27051 - NIE Lib,1.34845,103.67666
27061,Nanyang Dr,Sch of ADM,27061 - Sch of ADM,1.34985,103.68387
27069,Nanyang Dr,Blk 41,27069 - Blk 41,1.35009,103.68418
27071,Nanyang Cres,Nanyang Cres Halls,27071 - Nanyang Cres Halls,1.35508,103.68453
27091,Jln Bahar,Opp Blk 271 CP,27091 - Opp Blk 271 CP,1.34911,103.70389
27099,Jln Bahar,Blk 271 CP,27099 - Blk 271 CP,1.35024,103.70361
27101,Jln Bahar,Opp Westwood Sec Sch,27101 - Opp Westwood Sec Sch,1.35259,103.70112
27109,Jln Bahar,Westwood Sec Sch,27109 - Westwood Sec Sch,1.35309,103.70082
27121,Jln Bahar,Bef Nanyang Ave,27121 - Bef Nanyang Ave,1.35682,103.69521
27129,Jln Bahar,Opp Nanyang Ave,27129 - Opp Nanyang Ave,1.35733,103.69516
27131,Jurong West St 91,Blk 932,27131 - Blk 932,1.34194,103.68853
27139,Jurong West St 91,Blk 934,27139 - Blk 934,1.34203,103.68898
27141,Jurong West St 91,Blk 920,27141 - Blk 920,1.33968,103.6878
27149,Jurong West St 91,Juying Pr Sch,27149 - Juying Pr Sch,1.33907,103.68876
27159,Jurong West St 92,Blk 924,27159 - Blk 924,1.34034,103.69005
27169,Nanyang Ave,Bef Jln Bahar,27169 - Bef Jln Bahar,1.35693,103.69424
27171,Nanyang Ave,Bef Lor Danau,27171 - Bef Lor Danau,1.35605,103.69168
27179,Nanyang Ave,Aft Lor Danau,27179 - Aft Lor Danau,1.35618,103.69178
27181,Nanyang Ave,PUB Sub-Stn,27181 - PUB Sub-Stn,1.35588,103.68904
27189,Nanyang Ave,Opp PUB Sub-Stn,27189 - Opp PUB Sub-Stn,1.35607,103.68904
27199,Nanyang Ave,Hall 11,27199 - Hall 11,1.35434,103.68686
27209,Nanyang Ave,Halls 8 & 9,27209 - Halls 8 & 9,1.35151,103.68569
27211,Nanyang Dr,Lee Wee Nam Lib,27211 - Lee Wee Nam Lib,1.34793,103.6805
27219,Nanyang Dr,NIE Blk 2,27219 - NIE Blk 2,1.34793,103.68025
27221,Nanyang Dr,Sch of CEE,27221 - Sch of CEE,1.34623,103.67852
27231,Nanyang Dr,Wee Kim Wee Sch of C&I,27231 - Wee Kim Wee Sch of C&I,1.34208,103.67922
27241,Nanyang Dr,SPMS,27241 - SPMS,1.33999,103.68089
27251,Nanyang Dr,Academic Bldg Sth,27251 - Academic Bldg Sth,1.34115,103.68366
27261,Nanyang Dr,Hall 4,27261 - Hall 4,1.34332,103.68632
27271,Jurong West St 91,Blk 962,27271 - Blk 962,1.342,103.69132
27279,Jurong West St 91,Blk 953,27279 - Blk 953,1.3421,103.69119
27281,Lien Ying Chow Dr,Hall 1,27281 - Hall 1,1.34566,103.68781
27291,Lien Ying Chow Dr,Opp Hall 6,27291 - Opp Hall 6,1.34772,103.6865
27301,Pioneer Rd Nth,Blk 978,27301 - Blk 978,1.34045,103.6944
27309,Pioneer Rd Nth,Blk 705,27309 - Blk 705,1.34107,103.69427
27311,Lien Ying Chow Dr,Hall 2,27311 - Hall 2,1.34902,103.68539
27321,Pioneer Rd Nth,Blk 949,27321 - Blk 949,1.34404,103.69173
27329,Pioneer Rd Nth,Blk 840,27329 - Blk 840,1.34404,103.69186
27331,Jurong West St 72,West Grove Pr Sch,27331 - West Grove Pr Sch,1.34537,103.69941
27341,Jurong West St 72,Blk 729,27341 - Blk 729,1.34664,103.69779
27349,Jurong West St 72,Blk 745,27349 - Blk 745,1.34681,103.69782
27351,Jurong West Ave 5,Blk 715,27351 - Blk 715,1.34423,103.69613
27359,Jurong West Ave 5,Blk 817,27359 - Blk 817,1.34441,103.69601
27361,Jurong West Ave 5,Blk 710,27361 - Blk 710,1.34294,103.69452
27369,Jurong West Ave 5,Blk 834,27369 - Blk 834,1.34285,103.6941
27371,Jurong West St 75,Opp Blk 755,27371 - Opp Blk 755,1.34751,103.70099
27379,Jurong West St 75,Blk 755,27379 - Blk 755,1.34805,103.70087
27381,Jurong West St 75,Blk 749,27381 - Blk 749,1.34814,103.69821
27389,Jurong West St 75,Gek Poh Shop Ctr,27389 - Gek Poh Shop Ctr,1.34845,103.6981
27391,Jurong West St 82,Blk 857,27391 - Blk 857,1.34843,103.69631
27399,Jurong West St 82,Bet Blks 859/860,27399 - Bet Blks 859/860,1.34866,103.6964
27401,Jurong West St 81,Opp Blk 821,27401 - Opp Blk 821,1.34737,103.69414
27409,Jurong West St 81,Blk 821,27409 - Blk 821,1.34719,103.69417
27411,Jurong West St 81,Blk 844A CP,27411 - Blk 844A CP,1.34591,103.69274
27419,Jurong West St 81,Blk 827,27419 - Blk 827,1.34575,103.69282
27421,Jurong West St 71,Blk 701,27421 - Blk 701,1.34283,103.69536
27429,Jurong West St 71,Blk 711,27429 - Blk 711,1.34287,103.69556
27431,Jurong West Ave 5,Blk 762,27431 - Blk 762,1.34947,103.69735
27439,Jurong West Ave 5,Blk 861,27439 - Blk 861,1.34941,103.69712
27441,Jurong West Ave 5,Bet Blks 757/758,27441 - Bet Blks 757/758,1.35033,103.70079
27449,Jurong West Ave 5,Aft Westwood Ave,27449 - Aft Westwood Ave,1.35053,103.70108
27451,Jurong West Ave 3,Bet Blks 272D/271A,27451 - Bet Blks 272D/271A,1.35129,103.70415
27459,Jurong West Ave 3,Blk 273B,27459 - Blk 273B,1.35145,103.70399
27461,Jurong West Ave 3,Opp Blk 276B,27461 - Opp Blk 276B,1.35293,103.70513
27469,Jurong West Ave 3,Blk 276B,27469 - Blk 276B,1.35307,103.70487
27471,Jurong West St 23,Corporation Pr Sch,27471 - Corporation Pr Sch,1.35217,103.70782
27479,Jurong West St 23,Opp Corporation Pr Sch,27479 - Opp Corporation Pr Sch,1.35189,103.70818
27501,Jurong West St 93,NTUC Health Nursing Hme,27501 - NTUC Health Nursing Hme,1.34097,103.69167
27509,Jurong West St 93,Bef Yunnan Cres,27509 - Bef Yunnan Cres,1.34044,103.69136
27511,Jurong West St 93,Blk 974,27511 - Blk 974,1.33925,103.69311
27519,Jurong West St 93,Opp Blk 974,27519 - Opp Blk 974,1.34004,103.69292
27521,Jurong West St 93,Blk 986 CP,27521 - Blk 986 CP,1.33681,103.69406
27529,Jurong West St 93,Opp Blk 987A,27529 - Opp Blk 987A,1.3363,103.69406
27531,Jurong West St 91,Blk 918,27531 - Blk 918,1.34053,103.68697
27539,Jurong West St 91,Bef Xingnan Pr Sch,27539 - Bef Xingnan Pr Sch,1.34072,103.68689
28009,Jurong Gateway Rd,Jurong East Int,28009 - Jurong East Int,1.33235,103.74066
28011,C'wealth Ave West,Bef Toh Tuck Ave,28011 - Bef Toh Tuck Ave,1.32426,103.75915
28019,C'wealth Ave West,Aft Toh Tuck Ave,28019 - Aft Toh Tuck Ave,1.32493,103.75894
28021,Boon Lay Way,Opp 8 @Tradehub 21,28021 - Opp 8 @Tradehub 21,1.32616,103.75545
28029,Boon Lay Way,8 @ Tradehub 21,28029 - 8 @ Tradehub 21,1.32689,103.75436
28031,Boon Lay Way,Bef The Synergy,28031 - Bef The Synergy,1.3279,103.75101
28039,Boon Lay Way,Aft Boon Lay Sub Stn,28039 - Aft Boon Lay Sub Stn,1.32808,103.75141
28041,Boon Lay Way,The Synergy,28041 - The Synergy,1.33008,103.74828
28049,Boon Lay Way,Opp The Synergy,28049 - Opp The Synergy,1.3307,103.7481
28051,Boon Lay Way,Opp Ng Teng Fong Gen Hosp,28051 - Opp Ng Teng Fong Gen Hosp,1.33229,103.74574
28059,Boon Lay Way,Ng Teng Fong General Hosp,28059 - Ng Teng Fong General Hosp,1.33261,103.74581
28061,Boon Lay Way,J Gateway,28061 - J Gateway,1.33596,103.74255
28069,Boon Lay Way,Blk 203,28069 - Blk 203,1.33644,103.74256
28071,Boon Lay Way,Blk 105,28071 - Blk 105,1.33765,103.73904
28079,Boon Lay Way,Blk 210,28079 - Blk 210,1.3384,103.7386
28081,Boon Lay Way,Blk 112,28081 - Blk 112,1.33951,103.73665
28089,Boon Lay Way,Bef Yuhua CC,28089 - Bef Yuhua CC,1.34016,103.73635
28091,Boon Lay Way,Lakeside Stn,28091 - Lakeside Stn,1.34426,103.72012
28099,Boon Lay Way,Opp Lakeside Stn,28099 - Opp Lakeside Stn,1.34432,103.71927
28101,Toh Tuck Ave,Opp SMRT Ulu Pandan Depot,28101 - Opp SMRT Ulu Pandan Depot,1.33312,103.75906
28109,Toh Tuck Ave,SMRT Ulu Pandan Depot,28109 - SMRT Ulu Pandan Depot,1.33327,103.75933
28181,Toh Tuck Ave,Bef Toh Tuck Lk,28181 - Bef Toh Tuck Lk,1.32997,103.7582
28189,Toh Tuck Ave,Aft Toh Tuck Lk,28189 - Aft Toh Tuck Lk,1.32992,103.75851
28199,Jurong Gateway Rd,Opposite JEM,28199 - Opposite JEM,1.33268,103.74384
28201,Jurong Gateway Rd,Opp The JTC Summit,28201 - Opp The JTC Summit,1.33206,103.74185
28211,Jurong Gateway Rd,Bef Jurong East Stn,28211 - Bef Jurong East Stn,1.33419,103.74071
28221,Jurong Town Hall Rd,Opp Intl Business Pk,28221 - Opp Intl Business Pk,1.32762,103.74494
28229,Jurong Town Hall Rd,German Ctr,28229 - German Ctr,1.32537,103.74593
28231,Jurong Town Hall Rd,Jurong Town Hall,28231 - Jurong Town Hall,1.32986,103.74248
28239,Jurong Town Hall Rd,Jurong Town Hall Int,28239 - Jurong Town Hall Int,1.33003,103.74285
28241,Jurong Town Hall Rd,Opp Jurong East Lib,28241 - Opp Jurong East Lib,1.33176,103.73957
28249,Jurong Town Hall Rd,Jurong East Lib,28249 - Jurong East Lib,1.33261,103.73905
28251,Jurong Town Hall Rd,S'pore Science Ctr,28251 - S'pore Science Ctr,1.33383,103.73699
28259,Jurong Town Hall Rd,Opp S'pore Science Ctr,28259 - Opp S'pore Science Ctr,1.33415,103.73699
28261,Jurong Town Hall Rd,Aft S'pore Science Ctr,28261 - Aft S'pore Science Ctr,1.33614,103.7349
28269,Jurong Town Hall Rd,Blk 118,28269 - Blk 118,1.33653,103.73499
28271,Jurong Town Hall Rd,Opp Blk 114,28271 - Opp Blk 114,1.33899,103.73391
28279,Jurong Town Hall Rd,Blk 114,28279 - Blk 114,1.33948,103.73424
28281,Jurong Town Hall Rd,Opp Blk 227,28281 - Opp Blk 227,1.34206,103.73538
28289,Jurong Town Hall Rd,Blk 228,28289 - Blk 228,1.34239,103.73599
28291,Jurong Town Hall Rd,Blk 303,28291 - Blk 303,1.34446,103.73638
28299,Jurong Town Hall Rd,Blk 253,28299 - Blk 253,1.34438,103.73667
28301,Jurong Gateway Rd,Blk 131,28301 - Blk 131,1.33474,103.7403
28309,Jurong Town Hall Rd,Intl Business Pk,28309 - Intl Business Pk,1.32629,103.74578
28311,Jurong East Ctrl,Blk 209,28311 - Blk 209,1.33825,103.74108
28319,Jurong East Ctrl,Blk 207,28319 - Blk 207,1.33863,103.74173
28321,Jurong East Ave 1,Blk 239,28321 - Blk 239,1.34127,103.7409
28329,Jurong East Ave 1,Blk 246,28329 - Blk 246,1.34147,103.74044
28331,Jurong East Ave 1,Blk 229,28331 - Blk 229,1.34204,103.73805
28339,Jurong East Ave 1,Blk 252,28339 - Blk 252,1.34271,103.73738
28341,Boon Lay Way,Chinese Gdn Stn,28341 - Chinese Gdn Stn,1.34247,103.73271
28349,Boon Lay Way,Opp Chinese Gdn Stn,28349 - Opp Chinese Gdn Stn,1.34255,103.73319
28351,Boon Lay Way,Opp Blk 350,28351 - Opp Blk 350,1.34362,103.73106
28359,Boon Lay Way,Blk 350,28359 - Blk 350,1.34389,103.7312
28361,Boon Lay Way,Jurong Lake,28361 - Jurong Lake,1.34419,103.72749
28369,Boon Lay Way,Opp Jurong Lake,28369 - Opp Jurong Lake,1.3445,103.72747
28371,Boon Lay Way,Bef Jurong West St 51,28371 - Bef Jurong West St 51,1.34488,103.72409
28379,Boon Lay Way,Aft Jurong West St 51,28379 - Aft Jurong West St 51,1.34514,103.72426
28381,Jurong West St 51,Blk 515,28381 - Blk 515,1.34627,103.7213
